bbox,cessation,country_id,deprecated,file_hash,fullname,geom_hash,geom_latitude,geom_longitude,id,inception,iso,iso_country,lastmodified,lbl_latitude,lbl_longitude,locality_id,name,parent_id,path,placetype,region_id,source,superseded_by,supersedes,wof_country
"20.4816875433109,59.909787844887276,21.063007025000314,60.226263223006285",uuuu,0,,3ee58accd611ca30a00eba7833947776,,ceddddd64737c4c271699abccf29c071,60.090752,20.753145,907198465,uuuu,FI,FI,1470851982,60.065472,20.728697,0,Sottunga,-1,907/198/465/907198465.geojson,localadmin,0,,,,FI
"25.80100237158133,60.04469721534078,26.65639672570322,60.66135796128119",uuuu,85633143,,0df5f94e8f82a66c5950af7064d0afdb,,adffb5b8dde84f08109e4cd8189bb2c8,60.366590,26.240885,907198469,uuuu,FI,FI,1481176826,60.313799,26.282880,0,Loviisa,85683067,907/198/469/907198469.geojson,localadmin,85683067,figov,,,FI
"19.161173381594704,60.02487264159792,19.682896398973536,60.61151204065598",uuuu,0,,5ca42ac686b6c091ce91c04188f8ac2d,,69ae35fea5312dfe1e24445066e4e5e7,60.299116,19.425151,907198473,uuuu,FI,FI,1470851983,60.247127,19.537342,0,Eckero,-1,907/198/473/907198473.geojson,localadmin,0,,,,FI
"19.083200070586386,59.95641043198496,19.849324940400752,60.66578740275695",uuuu,0,,f7aebeb4ba8f7aacdaf0bbe09f2ba15d,,3a129a8a40a2c6aec2538f1997e4dbe0,60.310949,19.446326,907198477,uuuu,FI,FI,1470851984,60.539796,19.438309,0,Hammarland,-1,907/198/477/907198477.geojson,localadmin,0,,,,FI
"19.6582833656164,59.595063881346626,20.257942369514293,60.14323945279636",uuuu,0,,af29305d86ef1765bd61519360b6d762,,0733d13f0c3229dc0fc0ac4db64ad7bd,59.879900,19.965467,907198483,uuuu,FI,FI,1470851985,59.849754,19.936087,0,Lemland,-1,907/198/483/907198483.geojson,localadmin,0,,,,FI
"19.940647218160525,59.466085957766204,20.771624133776683,60.15107055831633",uuuu,0,,fb664ab794609fef49ce7d7d6d14661a,,85e48f2de7d6592212f5f223da81c482,59.818001,20.364907,907198485,uuuu,FI,FI,1470851985,59.836703,20.393330,0,Foglo,-1,907/198/485/907198485.geojson,localadmin,0,,,,FI
"19.423645075686604,59.79168332335909,20.133477580483127,60.210749179781395",uuuu,0,,72e1be303875ce7220e02a1320064258,,87ab54c75fd549eae5a8d3dfd329e5bc,60.017397,19.742662,907198489,uuuu,FI,FI,1470851986,60.004472,19.718401,0,Jomala,-1,907/198/489/907198489.geojson,localadmin,0,,,,FI
"20.133477580483127,60.04159950818034,20.340549548636915,60.17669723348433",uuuu,0,,5ff0433b3b95e12cbd3c12a03b41bf9f,,9ec0a72da5208ad0ffe1c8295d7e2ed6,60.116576,20.241492,907198491,uuuu,FI,FI,1470851987,60.125152,20.243063,0,Lumparland,-1,907/198/491/907198491.geojson,localadmin,0,,,,FI
"20.219051869818905,60.100889253408795,20.63576313936745,60.46648072989625",uuuu,0,,cd6ce98330b5732da2f0adcff8a45f24,,31ccc8972bf82e104e500f6dc6f1c55c,60.293957,20.421869,907198495,uuuu,FI,FI,1470851987,60.289587,20.436377,0,Vardo,-1,907/198/495/907198495.geojson,localadmin,0,,,,FI
"20.01759220870845,60.14323945279636,20.329824638148928,60.34105641966041",uuuu,85633143,,907322106cdaeaf94fc5abdeb3f133a8,,f3b13e76c69810f368c4ef7077f0cd8e,60.231102,20.169455,907198499,uuuu,FI,FI,1470851988,60.221055,20.167796,0,Sund,85667867,907/198/499/907198499.geojson,localadmin,85667867,,,,FI
"19.47324711088191,60.30843176007036,19.994214441529426,60.70834398762654",uuuu,0,,63afa2867c9130ffbb304d3fff02852c,,3ba3cdc420ea5e26147d793bc9348aeb,60.525079,19.737276,907198503,uuuu,FI,FI,1470851988,60.562004,19.719845,0,Geta,-1,907/198/503/907198503.geojson,localadmin,0,,,,FI
"22.65892363831371,59.6109994386779,23.29516776954821,59.93716682888193",uuuu,85633143,,4c3d0b99c88812093779431e5037a18d,,cfea928523dae3cd7a5b24c9e96749ad,59.765962,22.999336,907198505,uuuu,FI,FI,1481176826,59.765470,23.005417,0,Hanko,85683067,907/198/505/907198505.geojson,localadmin,85683067,figov,,,FI
"23.75265748440022,59.75169602715319,24.31628364068774,60.15011723994576",uuuu,85633143,,fcae0fc865cd57370d3fa437c1d5c2fd,,9c88479b7d7a9f3360d4a73701e03c8a,59.960416,24.054990,907198509,uuuu,FI,FI,1481176826,59.955146,24.049604,0,Inkoo,85683067,907/198/509/907198509.geojson,localadmin,85683067,figov,,,FI
"24.27206538141515,59.79156987479509,24.83141252089247,60.29770679732645",uuuu,85633143,,ad68281350141212e95e9bbf9bb57b8a,,0b9581533f1d64e01daaf61abe833c44,60.011268,24.495889,907198511,uuuu,FI,FI,1481176826,59.987781,24.500165,0,Kirkkonummi,85683067,907/198/511/907198511.geojson,localadmin,85683067,figov,,,FI
"24.49930213557342,59.90140478437409,24.94229984156589,60.36390070230066",uuuu,85633143,,dda5adc772e20b017494fd8015f0b5b5,,1461a8ee95fb585bd9b4b976f694a19d,60.164108,24.713587,907198517,uuuu,FI,FI,1481176826,60.135897,24.716896,0,Espoo,85683067,907/198/517/907198517.geojson,localadmin,85683067,figov,,,FI
"25.10218863904535,59.93709830611737,25.52691797934689,60.50623384739512",uuuu,85633143,,7399c3dda5e463b3d2290d02589fa5be,,ed466feed235f5c463f792d5612b0ea1,60.224650,25.286064,907198521,uuuu,FI,FI,1481176826,60.250776,25.342228,0,Sipoo,85683067,907/198/521/907198521.geojson,localadmin,85683067,figov,,,FI
"25.32928847012939,59.92819584928402,26.27129758696387,60.55099751201205",uuuu,85633143,,bdff9d0c620de80be37d364c534d7566,,ea23944edd24218fbb7796769d9d431c,60.185899,25.727853,907198525,uuuu,FI,FI,1481176826,60.163154,25.727500,0,Porvoo,85683067,907/198/525/907198525.geojson,localadmin,85683067,figov,,,FI
"19.74174596078185,60.18052040009447,20.02678530174757,60.45091367326135",uuuu,85633143,,6033cc58b48ae08826c7d924f3e997be,,6e2728f02bc097604e71219fbf364b56,60.270384,19.902272,907198529,uuuu,FI,FI,1470851994,60.259693,19.886349,0,Finstrom,85667835,907/198/529/907198529.geojson,localadmin,85667835,,,,FI
"19.797854638904084,60.22989157979169,20.5640371885705,60.76200235680307",uuuu,0,,5ec3153fd2b4929f6f841769b5991df9,,a3fbece396a74369ed869ed43ad61d8a,60.521499,20.099652,907198535,uuuu,FI,FI,1470851994,60.563327,20.095630,0,Saltvik,-1,907/198/535/907198535.geojson,localadmin,0,,,,FI
"23.97132673000571,60.4703991716809,24.46490446931713,60.64452157466437",uuuu,85633143,,189b31abeefd530a6b6b3f863cf1b368,,df146310f0b75857e79c2d834f9de54b,60.556943,24.238146,907198539,uuuu,FI,FI,1481176827,60.554938,24.196961,0,Karkkila,85683067,907/198/539/907198539.geojson,localadmin,85683067,figov,,,FI
"25.41427222916766,60.46991109534243,25.82322708236016,60.61413352794801",uuuu,85633143,,3a2dcbacb6ed216d732b5aa5f7359830,,02c0b22da5852d10a2ae40fe881cf7d4,60.542451,25.614210,907198543,uuuu,FI,FI,1481176827,60.541697,25.618151,0,Askola,85683067,907/198/543/907198543.geojson,localadmin,85683067,figov,,,FI
"25.20408206302462,60.40074052162127,25.5101962473581,60.55430049390508",uuuu,85633143,,2d4f2f5be34b43af6b9906750037e9af,,77ea467d888ce21a1832ef629b767e1b,60.482344,25.359441,907198545,uuuu,FI,FI,1481176827,60.484602,25.369810,0,Pornainen,85683067,907/198/545/907198545.geojson,localadmin,85683067,figov,,,FI
"23.15461536880288,60.46732628777333,23.92054910951664,60.77416824648042",uuuu,85633143,,48324d498109e38579ad8581d8b1b6a0,,f806934255b8aab048d8a0db37dfd2b8,60.614450,23.555172,907198549,uuuu,FI,FI,1481176827,60.591081,23.613235,0,Somero,85683073,907/198/549/907198549.geojson,localadmin,85683073,figov,,,FI
"20.20180344182422,60.123932930276204,21.151341113507698,60.87663669237715",uuuu,0,,069b5381018bcbedf14d7bca1ec64620,,5a1f2d9de8aad231884bbe99c0093767,60.556446,20.770643,907198555,uuuu,FI,FI,1470851998,60.556615,20.896459,0,Brando,-1,907/198/555/907198555.geojson,localadmin,0,,,,FI
"25.04534326549816,60.50163108384058,25.52542315125546,60.84085119154255",uuuu,85633143,,f48ecc9389dad9d4c7d1ffe4a00e53cc,,434565185fde3a3ec6e19792ef8b093f,60.661042,25.279125,907198557,uuuu,FI,FI,1481176827,60.649391,25.298499,0,Mantsala,85683067,907/198/557/907198557.geojson,localadmin,85683067,figov,,,FI
"24.71331012540546,60.65930138843945,25.19306658844222,60.92783859652126",uuuu,85633143,,15afaa80e700b0af817f0b55131768ea,,dbc82b86c9413c3c215c50f8c3f0d05a,60.782189,24.960681,907198561,uuuu,FI,FI,1481176827,60.765918,24.977088,0,Hausjarvi,85683077,907/198/561/907198561.geojson,localadmin,85683077,figov,,,FI
"25.07857192923262,60.75195515889547,25.44960674451773,60.98167685849283",uuuu,85633143,,06b5ec65a9fffbf762750ce297113950,,eb7c349bf77cfc19fc97535097ed2270,60.857873,25.268141,907198567,uuuu,FI,FI,1481176827,60.855295,25.270952,0,Karkola,85683091,907/198/567/907198567.geojson,localadmin,85683091,figov,,,FI
"24.0467482465181,60.55249148031296,24.69094982929412,60.82034961028557",uuuu,85633143,,9df6a15c4e16830ced2e0f20da8e2d6a,,15ac6a7858630073d6fa727ffa9584a9,60.691121,24.338978,907198573,uuuu,FI,FI,1481176828,60.691361,24.300778,0,Loppi,85683077,907/198/573/907198573.geojson,localadmin,85683077,figov,,,FI
"25.39499501212891,60.67147626545035,26.22384425715031,60.93455865780675",uuuu,85633143,,635022fca4d34c8cd72ab9d4ff940fe1,,1bee2d9809c6f0e406f1f41c6b512967,60.800278,25.821406,907198577,uuuu,FI,FI,1481176828,60.801453,25.788066,0,Orimattila,85683091,907/198/577/907198577.geojson,localadmin,85683091,figov,,,FI
"23.49830669437335,60.63766274490973,24.06324337728226,60.97398918955032",uuuu,85633143,,a07085c4bbcea0db8f55de592c40d970,,c90ef975dbe1abb6d6558579332b1c0d,60.785844,23.832405,907198581,uuuu,FI,FI,1481176828,60.796421,23.837799,0,Tammela,85683077,907/198/581/907198581.geojson,localadmin,85683077,figov,,,FI
"25.00753576117102,60.85435890489741,25.82219453079196,61.15070731937238",uuuu,85633143,,27a88738b84159d15b0e247e13fcef35,,e1f9852f52dca4cb9d6bbcd84f1ca68e,61.006743,25.389559,907198585,uuuu,FI,FI,1481176828,60.988960,25.423575,0,Hollola,85683091,907/198/585/907198585.geojson,localadmin,85683091,figov,,,FI
"24.1254914141609,60.24619821261273,24.64953094730954,60.58580118883248",uuuu,85633143,,39487a5c17eecd8e0c833552375c7227,,c7367f87bd11e83ef48666006150961c,60.408445,24.396762,907198595,uuuu,FI,FI,1481176829,60.395098,24.418376,0,Vihti,85683067,907/198/595/907198595.geojson,localadmin,85683067,figov,,,FI
"24.5248386769138,60.34178336362218,24.97545751974315,60.58886691867887",uuuu,85633143,,bd523ccb14c6743ba4dc8037ad594e8c,,15644226d9648f4e731cd388b958727b,60.461864,24.756265,907198599,uuuu,FI,FI,1481176829,60.445065,24.752867,0,Nurmijarvi,85683067,907/198/599/907198599.geojson,localadmin,85683067,figov,,,FI
"24.56293618620933,60.50812761926008,25.11246180173523,60.68499212104649",uuuu,85633143,,83d7d0c98d6ef837ef09e30fbf8f219a,,c6c87e8b009f7ffa85356162c51d8f71,60.609007,24.820403,907198603,uuuu,FI,FI,1481176829,60.612482,24.839081,0,Hyvinkaa,85683067,907/198/603/907198603.geojson,localadmin,85683067,figov,,,FI
"25.90495905697066,60.49960281651763,26.38020159068253,60.76234540281152",uuuu,85633143,,31488e5586ac3bb2dd38a5e25ad275a3,,050de6496f5bdcde9cf3105b338b884a,60.637137,26.198500,907198607,uuuu,FI,FI,1481176829,60.643813,26.257862,0,Lapinjarvi,85683067,907/198/607/907198607.geojson,localadmin,85683067,figov,,,FI
"20.37754343283206,60.43068457265473,21.54373694253936,60.90180722122651",uuuu,85633143,,9c42b82db04fb140afedc2e700ddcf0b,,3a5f9cee385ba4d8d1e2d52b92df056e,60.660710,21.064942,907198611,uuuu,FI,FI,1481176830,60.582769,21.260226,0,Kustavi,85683073,907/198/611/907198611.geojson,localadmin,85683073,figov,,,FI
"20.43757143842713,60.61674833720711,21.75828260310508,61.1269059310133",uuuu,85633143,,83c5f0852167052b6c085637d11d9229,,453683c6aff2c8f07a5a3a579751582f,60.882614,21.097273,907198615,uuuu,FI,FI,1481176830,60.902973,21.106910,0,Uusikaupunki,85683073,907/198/615/907198615.geojson,localadmin,85683073,figov,,,FI
"25.99192570346814,60.74784387556348,26.54496810305741,61.15548546302558",uuuu,85633143,,5d7b561b0cbe4ba8dd626a1342dc87be,,38b82d1eb118e479f61363466d4da2fa,60.935874,26.280210,907198619,uuuu,FI,FI,1481176830,60.895079,26.277185,0,Iitti,85683081,907/198/619/907198619.geojson,localadmin,85683081,figov,,,FI
"25.07290062435359,60.35907424711039,25.16358930122255,60.4429878069111",uuuu,85633143,,43ce8b53ea417473742a9cf5579b871e,,86f4ebd0bcf9d4c432502095bb33197a,60.399277,25.118714,907198627,uuuu,FI,FI,1481176831,60.398886,25.115053,0,Kerava,85683067,907/198/627/907198627.geojson,localadmin,85683067,figov,,,FI
"24.86619027365521,60.33244914674481,25.15350812438194,60.58063957877285",uuuu,85633143,,cc4ca26d0fd847dba554465613cd081f,,50cc3dcef6443b943274acb7cbbacbb5,60.451974,25.002058,907198631,uuuu,FI,FI,1481176831,60.423853,24.990165,0,Tuusula,85683067,907/198/631/907198631.geojson,localadmin,85683067,figov,,,FI
"21.36561744864451,60.46641068107882,21.78307646663695,60.64059051118586",uuuu,85633143,,60c919e44d3b2e96c8ac0cb2c77e72f8,,97cc1efa4cfacb84d03d1827097dc29b,60.559079,21.584791,907198635,uuuu,FI,FI,1481176831,60.543959,21.584793,0,Taivassalo,85683073,907/198/635/907198635.geojson,localadmin,85683073,figov,,,FI
"25.03853389137666,60.4429087174798,25.16930045140024,60.51673095185423",uuuu,85633143,,5d8002de87b120d9dada7a60b776293c,,8ff2f87c89211ada05a80e6e1a3ac08a,60.480510,25.100428,907198639,uuuu,FI,FI,1481176831,60.474412,25.095144,0,Jarvenpaa,85683067,907/198/639/907198639.geojson,localadmin,85683067,figov,,,FI
"21.50600445644323,60.571257484766,21.81537383085289,60.75929134760821",uuuu,85633143,,99c8af697aef0701f2d73f0fe64cea21,,8fa0fb9de3b35c5fdf5ec26a491d4012,60.673933,21.683475,907198643,uuuu,FI,FI,1481176831,60.679719,21.683425,0,Vehmaa,85683073,907/198/643/907198643.geojson,localadmin,85683073,figov,,,FI
"25.5403067224332,60.88664883150108,26.16898239739508,61.10266628340796",uuuu,85633143,,926cfd284f3110ed248475751aaaef48,,f6efdd279cf53175fe991d28dfd2b897,60.989800,25.864621,907198647,uuuu,FI,FI,1481176831,60.988992,25.889871,0,Lahti,85683091,907/198/647/907198647.geojson,localadmin,85683091,figov,,,FI
"26.44783952005636,60.17132863246899,26.87533645880259,60.65236751795714",uuuu,85633143,,a541e444bbe05a79c33797c6473930ec,,fd70b6c951ff51fb8bee3c8dbd14fb67,60.408043,26.682350,907198651,uuuu,FI,FI,1481176831,60.418391,26.699637,0,Pyhtaa,85683081,907/198/651/907198651.geojson,localadmin,85683081,figov,,,FI
"23.58631090410585,60.12949255601445,24.30569563505121,60.65384633076971",uuuu,85633143,,09564b0c80dc5f5cc7b0f78d88935001,,e26b995f0fc9654607994ad922846460,60.360513,23.943999,907198655,uuuu,FI,FI,1481176832,60.353410,23.949417,0,Lohja,85683067,907/198/655/907198655.geojson,localadmin,85683067,figov,,,FI
"25.42528858973979,60.57985989719589,25.74675047976631,60.71842108927394",uuuu,85633143,,dca566ebb54f145fa3351b4d2d0b7563,,5a3117898f8be27d37874878092614d7,60.652631,25.582815,907198663,uuuu,FI,FI,1481176832,60.649162,25.513515,0,Pukkila,85683067,907/198/663/907198663.geojson,localadmin,85683067,figov,,,FI
"20.77313885392898,60.99633222653208,22.07071534294101,61.28487202736148",uuuu,85633143,,ba172a4d7d94ce90e29e3a5ba8df89c8,,c59eff77f6aee755af80449c7bce02d0,61.141909,21.376400,907198665,uuuu,FI,FI,1481176832,61.158301,21.386160,0,Rauma,85683095,907/198/665/907198665.geojson,localadmin,85683095,figov,,,FI
"20.81208149677283,61.13813521411792,21.94594195746764,61.35264980599901",uuuu,85633143,,b2c3752a1b878b2364fec4226fef04d1,,d3b1d827710c56766fdc073916300814,61.260836,21.470857,907198669,uuuu,FI,FI,1481176832,61.217691,21.715519,0,Eurajoki,85683095,907/198/669/907198669.geojson,localadmin,85683095,figov,,,FI
"21.48091477967158,60.73846248744051,22.12846733453204,61.03418226425654",uuuu,85633143,,3505a3b82839fd8d69a6e6f78c0e5f79,,0addff890eb9f3d92cd6852732f968a7,60.894397,21.773859,907198671,uuuu,FI,FI,1481176832,60.901338,21.795965,0,Laitila,85683073,907/198/671/907198671.geojson,localadmin,85683073,figov,,,FI
"20.7714554780311,60.87087814706557,21.66613806972664,61.13347958680344",uuuu,85633143,,b5d8baa844c0d52748b6922bef4cfa1f,,798539e633fb4966d532cf089eb58624,61.029516,21.323215,907198675,uuuu,FI,FI,1481176832,61.054585,21.316540,0,Pyharanta,85683073,907/198/675/907198675.geojson,localadmin,85683073,figov,,,FI
"25.65964914782747,60.5487405275947,26.01477861551713,60.73587073203237",uuuu,85633143,,83f917b51a766b23dbf1ccfcd37b5001,,dc28f7f813804e07efeb15cffa5ea770,60.642082,25.842071,907198681,uuuu,FI,FI,1481176832,60.640889,25.839379,0,Myrskyla,85683067,907/198/681/907198681.geojson,localadmin,85683067,figov,,,FI
"26.74113261719895,60.20020147859757,27.46644913874219,60.6755818443596",uuuu,85633143,,80142c2efc6497f284a5ccc1e84acb62,,793b69be4cc8c53b6060799001e52714,60.380818,27.035796,907198683,uuuu,FI,FI,1481176833,60.342293,27.000064,0,Kotka,85683081,907/198/683/907198683.geojson,localadmin,85683081,figov,,,FI
"25.80110155750892,61.07091771600461,26.51366263379851,61.42583087096823",uuuu,85633143,,d351705634462a9d8766dd965abff515,,5ad30eea2f950fa7894601ca1e5acc24,61.257922,26.132695,907198689,uuuu,FI,FI,1481176833,61.267539,26.194945,0,Heinola,85683091,907/198/689/907198689.geojson,localadmin,85683091,figov,,,FI
"25.19975392125687,61.09629044286647,25.92732783615436,61.3646279849704",uuuu,85633143,,9adb450f2f2caf22a3fc1b4a193d8416,,bae21c35d7e5dc72ba0e560d2a2c3d4d,61.211590,25.587163,907198691,uuuu,FI,FI,1481176833,61.226785,25.623477,0,Asikkala,85683091,907/198/691/907198691.geojson,localadmin,85683091,figov,,,FI
"25.497041119156,61.67359057565474,25.92127540883072,61.89232257457359",uuuu,85633143,,847fcdbdf9c9a172a9a3d69149491cd8,,e9116abecafdf54213185b9a72d6bfb5,61.781215,25.695930,907198699,uuuu,FI,FI,1481176834,61.784249,25.695924,0,Luhanka,85683117,907/198/699/907198699.geojson,localadmin,85683117,figov,,,FI
"25.43742712463349,61.31062131659184,26.18773495664812,61.71838065195208",uuuu,85633143,,88e2b6b0ed2cba7cff76fa6dcbb56c7f,,857b5d05860d82a49a3a8aaee8ab9114,61.498464,25.721742,907198701,uuuu,FI,FI,1481176834,61.511959,25.684340,0,Sysma,85683091,907/198/701/907198701.geojson,localadmin,85683091,figov,,,FI
"21.71324758999653,61.2919110784411,22.1661258714736,61.42097610903798",uuuu,85633143,,45bb4d70a16b20566c2b296151ba2a99,,d3684c586b1412cb53a672379267a5ac,61.359192,21.948573,907198705,uuuu,FI,FI,1481176834,61.348808,21.945169,0,Nakkila,85683095,907/198/705/907198705.geojson,localadmin,85683095,figov,,,FI
"24.00826287668668,60.02249556530322,24.36176824252651,60.29464546893563",uuuu,85633143,,2671c2eba3f00c4316a84fffc24c67d3,,5fd8ee02d5ce1bdcc85171870b60035b,60.169033,24.220675,907198709,uuuu,FI,FI,1481176834,60.187750,24.223276,0,Siuntio,85683067,907/198/709/907198709.geojson,localadmin,85683067,figov,,,FI
"24.85549033674025,61.23996505562252,25.54515896325205,61.48690618375888",uuuu,85633143,,1c39c48ec6fe9b5dc97360a3db8d9140,,03f381a01767d2f776a25240bc693729,61.368180,25.199747,907198715,uuuu,FI,FI,1481176834,61.359149,25.205102,0,Padasjoki,85683091,907/198/715/907198715.geojson,localadmin,85683091,figov,,,FI
"27.35656950324876,60.34492343411042,27.88874190573694,60.66085012478962",uuuu,85633143,,c5040af405071228fc2eda1de5a102c5,,648dc0cb6a912de7e1563cfafb8e186e,60.528208,27.607369,907198719,uuuu,FI,FI,1481176835,60.520638,27.611431,0,Virolahti,85683081,907/198/719/907198719.geojson,localadmin,85683081,figov,,,FI
"26.31581606672937,61.15130193385476,27.38782473602895,61.60365795991972",uuuu,85633143,,de8632c2fdb8b1a8e54172306aac8cf3,,9933f5a7f58e054df476f4b98a913331,61.347456,26.875602,907198721,uuuu,FI,FI,1481176835,61.396926,26.738301,0,Mantyharju,85683109,907/198/721/907198721.geojson,localadmin,85683109,figov,,,FI
"29.40726777931048,61.72207280445561,30.48308670152602,62.25775298509227",uuuu,85633143,,60bbfb9ad2bb7c33aec35f04cf6f03a9,,575c7e93cd12173ca89c15206168d2c9,62.028971,29.919394,907198727,uuuu,FI,FI,1481176835,61.987709,29.866515,0,Kitee,85683133,907/198/727/907198727.geojson,localadmin,85683133,figov,,,FI
"23.2207491575551,61.19959667630721,23.73713256684239,61.39682548770839",uuuu,85633143,,8c6ad42c1962899f33f3f587470240c7,,d20294ff96b6f03a06cd2c8f74ce4da5,61.284347,23.485718,907198735,uuuu,FI,FI,1481176836,61.274670,23.485690,0,Vesilahti,85683099,907/198/735/907198735.geojson,localadmin,85683099,figov,,,FI
"27.42183732128175,60.60108138454819,27.99128281132424,60.84264003741158",uuuu,85633143,,05cc1613d5fa02fc341e48ef469dd09a,,522e3f79c5b6ec7c9e68a604bef7c52a,60.709963,27.661706,907198737,uuuu,FI,FI,1481176836,60.716030,27.666036,0,Miehikkala,85683081,907/198/737/907198737.geojson,localadmin,85683081,figov,,,FI
"25.77085020299074,61.39289383102388,26.34808216950394,61.80140787981895",uuuu,85633143,,6ebbd6c26133cafd4e398fafc0680a80,,601a7b32dde8ae924dd9342731ee2783,61.584984,26.049120,907198739,uuuu,FI,FI,1481176836,61.573829,26.044624,0,Hartola,85683091,907/198/739/907198739.geojson,localadmin,85683091,figov,,,FI
"26.23488320170182,61.33983182816388,26.65574586624482,61.65780525358434",uuuu,85633143,,b031a8bd9a8fb032e56e1cfaf7edba17,,85364f96795160afca9520da262b477d,61.499622,26.436310,907198743,uuuu,FI,FI,1481176837,61.508156,26.456940,0,Pertunmaa,85683109,907/198/743/907198743.geojson,localadmin,85683109,figov,,,FI
"25.84393014371787,61.60844941510321,26.53375146749512,62.04321899894291",uuuu,85633143,,47889964a1fa1bff38f882dd46048011,,861ace2184dfe9688468b378d7a2e868,61.829406,26.189024,907198751,uuuu,FI,FI,1481176837,61.823822,26.184344,0,Joutsa,85683117,907/198/751/907198751.geojson,localadmin,85683117,figov,,,FI
"26.36718130481727,61.50342638652738,27.02479701113879,61.86592385007959",uuuu,85633143,,1cd9ed5e7f8f2f48391d5bea93b463e6,,3ee02c3d149ee7985f95828801120fd5,61.694069,26.724501,907198755,uuuu,FI,FI,1481176837,61.700843,26.746994,0,Hirvensalmi,85683109,907/198/755/907198755.geojson,localadmin,85683109,figov,,,FI
"27.67439897171425,61.35039289959396,28.81786588391698,61.71694121011603",uuuu,85633143,,d5cea82a1db02e0ce168f0f2ffa57ef7,,9561cc7df95e16b2870d9f45c3410731,61.510770,28.193846,907198757,uuuu,FI,FI,1481176838,61.530635,28.232920,0,Puumala,85683109,907/198/757/907198757.geojson,localadmin,85683109,figov,,,FI
"27.17669444935458,61.01769168133679,27.93116091866806,61.3620783985391",uuuu,85633143,,d305679f5de33546389da09557dafdc2,,8abc52b5fc4afd531410e46aecb106e1,61.184181,27.564346,907198759,uuuu,FI,FI,1481176838,61.141941,27.532989,0,Savitaipale,85683103,907/198/759/907198759.geojson,localadmin,85683103,figov,,,FI
"27.37122773067133,61.54559553325937,28.22778485822879,62.0652775285827",uuuu,85633143,,ead8545f83ad9cd7a1e03ba9b5c23a22,,608c47589fb44db198ec8aa37aac44dc,61.840826,27.809106,907198761,uuuu,FI,FI,1481176838,61.840639,27.808668,0,Juva,85683109,907/198/761/907198761.geojson,localadmin,85683109,figov,,,FI
"26.8271668614194,61.2089551636114,27.90038241928924,62.19915638420936",uuuu,85633143,,9dd7082a0a5a1cb0c4d27ef2637e210a,,60b160b8dfc6b0f60bb4ec96b5a77027,61.676897,27.307015,907198765,uuuu,FI,FI,1481176839,61.635505,27.298839,0,Mikkeli,85683109,907/198/765/907198765.geojson,localadmin,85683109,figov,,,FI
"26.22072254440092,61.78865938797317,27.12916782862538,62.30772635258237",uuuu,85633143,,d5c840f5648b1e6762d9c97aeaf00522,,a335f73db7d61561a31cedfb2cdf15aa,62.033294,26.622181,907198773,uuuu,FI,FI,1481176839,62.035682,26.615319,0,Kangasniemi,85683109,907/198/773/907198773.geojson,localadmin,85683109,figov,,,FI
"27.74749404032337,61.06159331631515,28.40919309022236,61.37968654595126",uuuu,85633143,,4a27dc28fb3e0e91f6eaab2ff789f186,,c405792ed4aca50ba673282d9d70c3f4,61.232836,28.091962,907198779,uuuu,FI,FI,1481176840,61.234771,28.085872,0,Taipalsaari,85683103,907/198/779/907198779.geojson,localadmin,85683103,figov,,,FI
"28.08878327603481,61.52730519971352,28.9560501794975,61.94531007750113",uuuu,85633143,,a53c7c7fce1a72178cecbff7317d78cc,,9a69178a245c380027300dd69d21f957,61.745833,28.424238,907198787,uuuu,FI,FI,1481176840,61.801226,28.315872,0,Sulkava,85683109,907/198/787/907198787.geojson,localadmin,85683109,figov,,,FI
"28.2521979391664,61.18848945896393,29.26157055920238,61.56006441097746",uuuu,85633143,,817fdfcd547b23e7f2cb990487976ad0,,7ec838b2290257151b46418eb760e42b,61.379070,28.756589,907198791,uuuu,FI,FI,1481176841,61.362620,28.748838,0,Ruokolahti,85683103,907/198/791/907198791.geojson,localadmin,85683103,figov,,,FI
"20.82915841800101,61.69992386614133,21.75210752931023,62.02459119465759",uuuu,85633143,,8d856c31eabcff1e9b7eea313bc1cb91,,27bfe528dff8f208dbe9812464bfa549,61.851673,21.313972,907198797,uuuu,FI,FI,1481176841,61.838906,21.322604,0,Merikarvia,85683095,907/198/797/907198797.geojson,localadmin,85683095,figov,,,FI
"24.78389082927144,61.45070250353919,25.53522096061769,61.7869493694745",uuuu,85633143,,96dcf1492d5327bbf130294ec9ebbb23,,058ac0f95bc7de8abd32832fd0c68f54,61.611910,25.182457,907198799,uuuu,FI,FI,1481176841,61.604186,25.189661,0,Kuhmoinen,85683117,907/198/799/907198799.geojson,localadmin,85683117,figov,,,FI
"29.01923864931142,61.21043483861231,29.44878798226024,61.52021337132584",uuuu,85633143,,c6c5d427f23c3f8fe35c1f48af6d7dd2,,d4d9c68b30590b7605edf87446131417,61.375439,29.213387,907198805,uuuu,FI,FI,1481176841,61.366304,29.216622,0,Rautjarvi,85683103,907/198/805/907198805.geojson,localadmin,85683103,figov,,,FI
"21.67897436191026,61.74653683977227,22.17543515800151,62.01586247023026",uuuu,85633143,,9ed7b91c517d7aba28111b8fd1b85a10,,bdda03d167b67dcc632af2be9b2db740,61.867761,21.893840,907198809,uuuu,FI,FI,1481176841,61.878008,21.889179,0,Siikainen,85683095,907/198/809/907198809.geojson,localadmin,85683095,figov,,,FI
"25.76798910730324,61.99659637585957,26.33167352466019,62.2358638766464",uuuu,85633143,,9ad0d39d05eb67913aa140e02ec860d8,,0fb82709ec338aed5b2a53c9838b3904,62.109791,26.074815,907198813,uuuu,FI,FI,1481176841,62.112368,26.117277,0,Toivakka,85683117,907/198/813/907198813.geojson,localadmin,85683117,figov,,,FI
"26.19570353343385,62.19283803249234,26.78030338725107,62.57815399625633",uuuu,85633143,,b0e4e91b25404feffe5d1d395bca64b1,,8bb262151c45dc7b842248ed0cddc122,62.379426,26.452491,907198817,uuuu,FI,FI,1481176841,62.382560,26.447937,0,Hankasalmi,85683117,907/198/817/907198817.geojson,localadmin,85683117,figov,,,FI
"21.72805212271322,61.61501172362419,22.38267739532197,61.78265935597186",uuuu,85633143,,922cd97470bfc38d7fb90419fc2861d9,,a3337d4bb58dce07ce2f33993fb6cb02,61.704619,22.049385,907198823,uuuu,FI,FI,1481176842,61.701486,22.098978,0,Pomarkku,85683095,907/198/823/907198823.geojson,localadmin,85683095,figov,,,FI
"20.72812003400536,61.92166847320279,21.76620688646109,62.42429873837685",uuuu,85633143,,89b0f07ebacb34386577f398a8f8e433,,ea64a7cabee30d25558caa86a462582b,62.132268,21.247851,907198827,uuuu,FI,FI,1481176842,62.107218,21.255646,0,Kristiinankaupunki,85683119,907/198/827/907198827.geojson,localadmin,85683119,figov,,,FI
"23.1953659522322,60.87036442745616,23.50255985977292,61.02089194834323",uuuu,85633143,,a2c8ba700f2f4fef5ee5b65f86fa9c48,,0370dacfbf9ee637808b7dd21d8d2860,60.944296,23.350126,907198829,uuuu,FI,FI,1481176842,60.928549,23.360582,0,Humppila,85683077,907/198/829/907198829.geojson,localadmin,85683077,figov,,,FI
"23.1356381342449,60.71107539324785,23.40862399902458,60.89242908611773",uuuu,85633143,,abc35b163f0f84c07ef75f044468dff8,,5ce2b50eb6fecf598fb92ae9b437d881,60.804345,23.267480,907198833,uuuu,FI,FI,1481176842,60.794862,23.283667,0,Ypaja,85683077,907/198/833/907198833.geojson,localadmin,85683077,figov,,,FI
"22.91507279599333,61.0012198067167,23.38336016247538,61.22373462143063",uuuu,85633143,,630feb7145fbe40fce64b70aa383a725,,9aaff3fe7f2e7de352d34e56201723e3,61.115973,23.128044,907198835,uuuu,FI,FI,1481176842,61.117191,23.128003,0,Punkalaidun,85683099,907/198/835/907198835.geojson,localadmin,85683099,figov,,,FI
"23.22729822312474,60.93975479855297,23.87851609541038,61.23997254212986",uuuu,85633143,,888b9eec1b12eec2a9856a09bc206867,,2f9b5973f7b294c4f9886fe7feace4e3,61.081543,23.495390,907198841,uuuu,FI,FI,1481176843,61.077963,23.463478,0,Urjala,85683099,907/198/841/907198841.geojson,localadmin,85683099,figov,,,FI
"26.82660355597031,62.44234120172315,27.53948478731153,62.84994578428039",uuuu,85633143,,4a04e0df31ad3aefca6f4b2591357710,,02e8404d399b55879dffd9d5bd4d2e87,62.619782,27.155351,907198847,uuuu,FI,FI,1481176843,62.617248,27.155103,0,Suonenjoki,85683131,907/198/847/907198847.geojson,localadmin,85683131,figov,,,FI
"29.2364229702568,61.42447377454967,30.14395596096886,61.86431643674153",uuuu,85633143,,ecf9dd6886b4d2d74143bdff33e35c21,,f77a7809a2b95b81334d7bceefbad8f9,61.638532,29.633359,907198853,uuuu,FI,FI,1481176844,61.624783,29.626750,0,Parikkala,85683103,907/198/853/907198853.geojson,localadmin,85683103,figov,,,FI
"28.63270642588856,62.57016747897034,29.30395676205843,62.84847950684306",uuuu,85633143,,63329ed655d40e40a6970654f3f18396,,6d48e05395b21de85cb8fe0dc2f3b321,62.721838,28.953471,907198859,uuuu,FI,FI,1481176844,62.688012,28.902672,0,Outokumpu,85683133,907/198/859/907198859.geojson,localadmin,85683133,figov,,,FI
"28.94133570959345,62.35974842085644,29.76332267548953,62.72234704686823",uuuu,85633143,,a5de449cd0b3fb9462ea5e8986685f54,,b1cca8d3376340e580d5b49c110f7d49,62.542094,29.382800,907198863,uuuu,FI,FI,1481176844,62.539247,29.382861,0,Liperi,85683133,907/198/863/907198863.geojson,localadmin,85683133,figov,,,FI
"28.37021477359249,61.53369840350953,29.69682562751909,62.41775699479728",uuuu,85633143,,4496a90132f5cea323adc23624a5c2fa,,ff1d712507887083403f745aa8136729,61.915397,29.086844,907198867,uuuu,FI,FI,1481176845,61.776643,29.055924,0,Savonlinna,85683109,907/198/867/907198867.geojson,localadmin,85683109,figov,,,FI
"21.62545931222585,61.97975958442849,22.19871428435326,62.29751088620863",uuuu,85633143,,a19a1f132b206f5e2a6ba9de55897f0d,,1cbebda1d39c5b164af4d53897f4ed00,62.117954,21.901995,907198871,uuuu,FI,FI,1481176846,62.120176,21.896535,0,Isojoki,85683113,907/198/871/907198871.geojson,localadmin,85683113,figov,,,FI
"21.97468637063651,61.89609625945134,22.44984748550263,62.14244810667581",uuuu,85633143,,c459cfda113aad35fc9c93061990aef9,,d14eb6dab5ccb45f487fe9d4c87f9dc9,62.012649,22.223565,907198873,uuuu,FI,FI,1481176846,62.005461,22.207485,0,Honkajoki,85683095,907/198/873/907198873.geojson,localadmin,85683095,figov,,,FI
"27.49372456600209,61.98775913059709,28.09205906570603,62.37475947613095",uuuu,85633143,,26a204e774f79e74c3fb9496a045377d,,a4dbde1aad173fd4cf93159ee3b95001,62.172862,27.787102,907198879,uuuu,FI,FI,1481176846,62.153569,27.782425,0,Joroinen,85683109,907/198/879/907198879.geojson,localadmin,85683109,figov,,,FI
"27.86132169934005,61.9138453564916,28.73931423175248,62.24547603070668",uuuu,85633143,,0a02c6577098edbd8fd2d31ce82b2e73,,6cca1bcd5cdaf8aad740f5fcc6438737,62.059492,28.288443,907198885,uuuu,FI,FI,1481176846,62.060450,28.295411,0,Rantasalmi,85683109,907/198/885/907198885.geojson,localadmin,85683109,figov,,,FI
"27.7104399778529,60.66665806087023,28.77664852198369,61.28468692947974",uuuu,85633143,,9d2bf76df1b70d63a98f4d936de147c8,,dd1667cee410d9206b5775f8e3128c44,60.980459,28.261483,907198887,uuuu,FI,FI,1481176847,60.967190,28.253560,0,Lappeenranta,85683103,907/198/887/907198887.geojson,localadmin,85683103,figov,,,FI
"29.29596533462262,62.14611679898644,30.03520449055451,62.40743905253013",uuuu,85633143,,2e60991526ac611ff953dc034daab10e,,0e3d55c3efb3c5abe351e3040f891557,62.296108,29.673645,907198891,uuuu,FI,FI,1481176847,62.281065,29.710633,0,Raakkyla,85683133,907/198/891/907198891.geojson,localadmin,85683133,figov,,,FI
"26.44656023298178,62.42399865335162,27.01014231930234,62.84915871703916",uuuu,85633143,,c2acc9b53cc3f96f7530b6c54a35cfd5,,183b452b2a32429565ebef42c9a349aa,62.642909,26.716185,907198897,uuuu,FI,FI,1481176847,62.667046,26.719954,0,Rautalampi,85683131,907/198/897/907198897.geojson,localadmin,85683131,figov,,,FI
"27.40676297579344,62.28460339674913,28.54546155697867,62.70583928577825",uuuu,85633143,,23e3b8360446333a4a34c2c43113e45b,,91bbb1f54496b73d713bde9b6c7a44c3,62.517788,27.926459,907198899,uuuu,FI,FI,1481176847,62.528926,27.926534,0,Leppavirta,85683131,907/198/899/907198899.geojson,localadmin,85683131,figov,,,FI
"21.80298889694386,61.38459543967974,22.43416013212207,61.57325050813368",uuuu,85633143,,eb9565581479932aa3bc6d2c85316186,,ddc1f3fb7e480bbfb8371a8937a510ae,61.481685,22.113619,907198905,uuuu,FI,FI,1481176848,61.494832,22.107705,0,Ulvila,85683095,907/198/905/907198905.geojson,localadmin,85683095,figov,,,FI
"21.77063886703786,60.55764605629992,22.41500366430425,60.9042053837991",uuuu,85633143,,30cd398433f8b6c56b683d095784f01a,,1199613c80bab4d6d2bd3e3476d0211f,60.740102,22.026144,907198907,uuuu,FI,FI,1481176848,60.756592,22.021205,0,Mynamaki,85683073,907/198/907/907198907.geojson,localadmin,85683073,figov,,,FI
"22.06613706413517,60.33351570174795,22.45816282618218,60.73729290186384",uuuu,85633143,,a7f2fe2e7d80b0991eeaa52592978437,,3ae74074d7f8341aca0c6083637e951a,60.470951,22.264367,907198909,uuuu,FI,FI,1481176848,60.398438,22.185785,0,Turku,85683073,907/198/909/907198909.geojson,localadmin,85683073,figov,,,FI
"21.50587034024604,60.26000040448015,22.10784218091183,60.56367398572866",uuuu,85633143,,e4c7ddb73043013c95f07025c43ba95e,,0c04e57381a6d5ed29fa6d21f2bc724d,60.402822,21.828496,907198913,uuuu,FI,FI,1481176848,60.406027,21.873892,0,Naantali,85683073,907/198/913/907198913.geojson,localadmin,85683073,figov,,,FI
"21.8440945905357,60.87200574225196,22.26363191243653,61.30878912668057",uuuu,85633143,,980ae3eccb9c61cc2b0676ed8ecacade,,58771aff80b4294ea7a03522b8dd77a8,61.090133,22.069049,907198915,uuuu,FI,FI,1481176848,61.123042,22.121295,0,Eura,85683095,907/198/915/907198915.geojson,localadmin,85683095,figov,,,FI
"21.7773100415167,60.47956348908077,22.41500366430425,60.73729290186384",uuuu,85633143,,c407241a85ee4cbfe967096de526d113,,9b5d2d01501285769be28f9c34aa2a59,60.558340,22.005554,907198919,uuuu,FI,FI,1481176848,60.547563,21.955255,0,Masku,85683073,907/198/919/907198919.geojson,localadmin,85683073,figov,,,FI
"22.16031362989742,60.62674823661379,22.9422832122791,60.95582885624303",uuuu,85633143,,8695652bb81a57a727a718445bac08f8,,5e04de318bc30cbc101359cf012edebb,60.787692,22.547637,907198921,uuuu,FI,FI,1481176849,60.767496,22.541803,0,Poytya,85683073,907/198/921/907198921.geojson,localadmin,85683073,figov,,,FI
"22.52246586121012,60.81324607682529,22.81697149316009,60.99019922393487",uuuu,85633143,,21fdb504aa69a898e8b4f79511445d26,,5aa0b34816672b2fa3d23f573d41b1ba,60.881223,22.670455,907198923,uuuu,FI,FI,1481176849,60.867514,22.682008,0,Oripaa,85683073,907/198/923/907198923.geojson,localadmin,85683073,figov,,,FI
"22.14190359299085,60.91601252788175,22.7015445017857,61.25194062511301",uuuu,85633143,,8578f15da0bd19a69d6b5312a0a1504c,,1cd7d4a14649ec05e56b1136fbc3e5d1,61.065828,22.381133,907198925,uuuu,FI,FI,1481176849,61.064074,22.381224,0,Sakyla,85683095,907/198/925/907198925.geojson,localadmin,85683095,figov,,,FI
"22.00364339204993,61.26511532123097,22.27202402664921,61.43196821718998",uuuu,85633143,,f62901cff6712bab67d3065169535340,,2b113eeb3847eb76b78f7cd8a825baeb,61.336292,22.146344,907198927,uuuu,FI,FI,1481176849,61.349858,22.170765,0,Harjavalta,85683095,907/198/927/907198927.geojson,localadmin,85683095,figov,,,FI
"22.48034135448139,60.98258618773094,23.00623430978676,61.30201281313174",uuuu,85633143,,9830873955fc250ea5ea0033e69fcef4,,f758f4dc8ef08f9e58a8e7db4caabf4c,61.132228,22.724183,907198933,uuuu,FI,FI,1481176849,61.116899,22.698165,0,Huittinen,85683095,907/198/933/907198933.geojson,localadmin,85683095,figov,,,FI
"22.11411218007318,61.17062325852674,22.60996991888195,61.48892254203512",uuuu,85633143,,1e01e69a85fcb3fe2d17cae1147493c8,,c8c1756392f4aa342b0d14bfed1577f3,61.318326,22.396079,907198937,uuuu,FI,FI,1481176849,61.322602,22.399742,0,Kokemaki,85683095,907/198/937/907198937.geojson,localadmin,85683095,figov,,,FI
"22.43984552922652,60.21005941871709,22.88044608828352,60.39307892687175",uuuu,85633143,,0e95966708876fe89aa7d181cae94a17,,5e587b1c4191e720c20384ba9767a2c5,60.299559,22.665577,907198941,uuuu,FI,FI,1481176849,60.303170,22.661396,0,Sauvo,85683073,907/198/941/907198941.geojson,localadmin,85683073,figov,,,FI
"22.7909832536244,59.99520923741811,23.79597212266444,60.59567686005523",uuuu,85633143,,0c93cde00daf81c1a10898dc17b63200,,94851143d7baaf6f22e46f6d9e6dac31,60.338561,23.240070,907198943,uuuu,FI,FI,1481176849,60.362868,23.149142,0,Salo,85683073,907/198/943/907198943.geojson,localadmin,85683073,figov,,,FI
"23.2763346228245,60.73977380106876,23.56466849369275,60.947617798862",uuuu,85633143,,c080d5fdb8cdb05966e68aac87727be1,,ebbad805f7947945ac228363744b3e5a,60.837094,23.459915,907198951,uuuu,FI,FI,1481176850,60.825409,23.474060,0,Jokioinen,85683077,907/198/951/907198951.geojson,localadmin,85683077,figov,,,FI
"27.1210694294347,60.79533160228661,27.93324575577988,61.1064860588579",uuuu,85633143,,8d7ada5aa8c72b9166a0607bd8862a33,,dc2e9605c6694050112072b0e9e94d9b,60.939711,27.528077,907198953,uuuu,FI,FI,1481176850,60.910925,27.527869,0,Luumaki,85683103,907/198/953/907198953.geojson,localadmin,85683103,figov,,,FI
"21.92392857652185,60.56422962626281,22.41500366430425,60.74746805623528",uuuu,85633143,,2e4e085e6647441659537c83ba33b6a8,,56adcc2bbd4a8a1b4cccd468fbf8bea1,60.654013,22.165207,907198955,uuuu,FI,FI,1481176850,60.648927,22.150502,0,Nousiainen,85683073,907/198/955/907198955.geojson,localadmin,85683073,figov,,,FI
"22.06738728224686,60.44786468980876,22.24940381872385,60.53085155003696",uuuu,85633143,,1958107c2d559f1a34caa25703ea8ca4,,0ba441531d505de930573c07bcc88803,60.490791,22.145568,907198957,uuuu,FI,FI,1481176850,60.496969,22.145553,0,Raisio,85683073,907/198/957/907198957.geojson,localadmin,85683073,figov,,,FI
"27.5727886563231,60.99375236965496,27.99116878938899,61.16971720126859",uuuu,85633143,,0b1eb00db95fe7c25b66d29701c17cd7,,64ee0f98885852b27d3e7982418df500,61.074174,27.797145,907198959,uuuu,FI,FI,1481176850,61.078381,27.797030,0,Lemi,85683103,907/198/959/907198959.geojson,localadmin,85683103,figov,,,FI
"22.56868643503414,60.69880799911162,23.29958584475323,61.10143532362903",uuuu,85633143,,4a5f38d630d132d54c6c51a2481d28b2,,c49458c5cea079e53b24bb21ee9af228,60.897909,22.963730,907198963,uuuu,FI,FI,1481176850,60.878827,22.958137,0,Loimaa,85683073,907/198/963/907198963.geojson,localadmin,85683073,figov,,,FI
"26.23539275360378,60.57500644623542,27.42835969891218,61.29257864900661",uuuu,85633143,,9c6a57a06516652085c40cef63dd5ef7,,f7dfa6ef0361cea4cac7eb4935b151f6,60.939816,26.773035,907198969,uuuu,FI,FI,1481176851,60.944357,26.781989,0,Kouvola,85683081,907/198/969/907198969.geojson,localadmin,85683081,figov,,,FI
"28.66856866652113,61.07925499126453,29.02196583538476,61.28435430630417",uuuu,85633143,,af1019aeaf39accdeb5897cdcd991a46,,7a87b56617dda0a4b1e0242cc758a9e2,61.186654,28.839007,907198977,uuuu,FI,FI,1481176852,61.185368,28.838984,0,Imatra,85683103,907/198/977/907198977.geojson,localadmin,85683103,figov,,,FI
"22.14383721950463,60.50379812018708,22.41500366430425,60.73729290186384",uuuu,85633143,,026a962a7c545e64795165503ca903e8,,3f8ba09783e5992f0a1a8595baaf4957,60.605047,22.289988,907198981,uuuu,FI,FI,1481176852,60.621789,22.299236,0,Rusko,85683073,907/198/981/907198981.geojson,localadmin,85683073,figov,,,FI
"20.31017801122539,62.89398929648462,22.05885363282786,63.62898147592031",uuuu,85633143,,1a381f4a95813199c6b794f64a958ded,,5c77db178357ef9feebd409a37aa1ab0,63.302382,21.247150,907198985,uuuu,FI,FI,1481176852,63.367386,21.260508,0,Mustasaari,85683119,907/198/985/907198985.geojson,localadmin,85683119,figov,,,FI
"21.77206100051777,62.75157420779532,22.29161449045756,63.04876461042723",uuuu,85633143,,df107a78bb5694fbe727c6b96201821e,,b31acdc3e25584aae2dcaae14c99bf20,62.882143,22.027170,907198989,uuuu,FI,FI,1481176852,62.880100,22.047981,0,Laihia,85683119,907/198/989/907198989.geojson,localadmin,85683119,figov,,,FI
"22.27421594975153,60.34509500549873,22.60943024206435,60.4980483605005",uuuu,85633143,,8e41ab700dccf16d876d22385b7af4f5,,cbc3daf07d535b4c3121c8df6e09c86e,60.412283,22.465437,907198993,uuuu,FI,FI,1481176852,60.403859,22.481993,0,Kaarina,85683073,907/198/993/907198993.geojson,localadmin,85683073,figov,,,FI
"23.65651130932226,63.75625567509537,24.24745225935792,64.09192951217715",uuuu,85633143,,da0c2aef1ec61228c7b2b8228ab5c126,,9fe96c328aaabf7b0436c2e7f522b0e1,63.925645,23.968318,907198997,uuuu,FI,FI,1481176852,63.933868,24.021680,0,Kannus,85683125,907/198/997/907198997.geojson,localadmin,85683125,figov,,,FI
"23.13666845529957,61.32760957591513,23.61313804852245,61.57225210787639",uuuu,85633143,,abe9f4e21c7293d657d291b7279847eb,,e1f187dde2bc2347ce4f4082b96550af,61.452595,23.369484,907198999,uuuu,FI,FI,1481176852,61.435292,23.333421,0,Nokia,85683099,907/198/999/907198999.geojson,localadmin,85683099,figov,,,FI
"22.15015157766792,62.59711534761192,22.87751637397584,62.87590601461672",uuuu,85633143,,64de075c696ef573bea186de5046bdbc,,80b7b97fed74afbfa6a3c06d4bf4ecf9,62.729801,22.554156,907199003,uuuu,FI,FI,1481176853,62.729399,22.554181,0,Ilmajoki,85683113,907/199/003/907199003.geojson,localadmin,85683113,figov,,,FI
"21.65680595080752,62.26900577868111,23.14451822758734,62.86549639240545",uuuu,85633143,,51ef52fb7464d9fa65d9607533af71bd,,e15aafb7d72794d629bf68ec22a178d9,62.548713,22.466382,907199007,uuuu,FI,FI,1481176853,62.450710,22.787289,0,Kurikka,85683113,907/199/007/907199007.geojson,localadmin,85683113,figov,,,FI
"22.35320969047847,60.44706522904237,22.8546839605952,60.64090719402733",uuuu,85633143,,fcbd727f87e99ec3ad569aa03440b2ca,,dcda2a96e2b2ec76cca7fda48f95bc52,60.552536,22.574699,907199011,uuuu,FI,FI,1481176853,60.528205,22.516144,0,Lieto,85683073,907/199/011/907199011.geojson,localadmin,85683073,figov,,,FI
"26.6619701726726,62.00586209483993,27.69307963583065,62.53001761313739",uuuu,85633143,,92b57e2693bb420742925491d8d5e9db,,d188d1497852714eaa2f22752f1915a2,62.292105,27.202321,907199013,uuuu,FI,FI,1481176853,62.281931,27.315367,0,Pieksamaki,85683109,907/199/013/907199013.geojson,localadmin,85683109,figov,,,FI
"28.63665530758783,61.996123516361,29.13238300102579,62.27453714689722",uuuu,85633143,,ef5f0eb1b88da074c990563f6a9b76b7,,7c6902c7b5b6c38e74925e45881a461c,62.124946,28.889432,907199021,uuuu,FI,FI,1481176854,62.107428,28.927055,0,Enonkoski,85683109,907/199/021/907199021.geojson,localadmin,85683109,figov,,,FI
"28.14348338886182,62.14529609412231,29.18388884742298,62.65702168105591",uuuu,85633143,,d846cf6578417bde42ab89e33f3d44a1,,eb4a1a80044347774f9dc8de4c341a75,62.433857,28.721125,907199027,uuuu,FI,FI,1481176855,62.439721,28.682299,0,Heinavesi,85683109,907/199/027/907199027.geojson,localadmin,85683109,figov,,,FI
"20.30018112472474,62.65618388683422,21.41293916664826,62.93952903019626",uuuu,85633143,,c91550231fc6be3b893721098c6334fb,,84495789958684c63a2fba77051e4f8c,62.806283,20.847086,907199033,uuuu,FI,FI,1481176856,62.805105,20.846483,0,Korsnas,85683119,907/199/033/907199033.geojson,localadmin,85683119,figov,,,FI
"20.69171928047646,62.24780140062853,21.27231237253453,62.39694524019895",uuuu,85633143,,483ad6db2f09ecd66ada505ec4f081aa,,36cdf2b7ea6d336d964c0f02fed4deb4,62.303364,20.993878,907199039,uuuu,FI,FI,1481176856,62.296919,20.993240,0,Kaskinen,85683119,907/199/039/907199039.geojson,localadmin,85683119,figov,,,FI
"20.16581890493271,62.73566409509845,21.78513165759726,63.26764470359797",uuuu,85633143,,6f87e8b121494979dc6ce15374ab721b,,bffd96dd0c6ae8010c437f36d614c13d,63.008992,20.916401,907199043,uuuu,FI,FI,1481176856,63.062500,20.658996,0,Maalahti,85683119,907/199/043/907199043.geojson,localadmin,85683119,figov,,,FI
"21.59947406837568,63.28204804830519,22.98069891035587,63.75994523109789",uuuu,85633143,,ccb4039a43f7365176170242e535f338,,c5fd7d5f90ba537bc49d022b522db3e8,63.522532,22.304208,907199045,uuuu,FI,FI,1481176856,63.517713,22.294268,0,Uusikaarlepyy,85683119,907/199/045/907199045.geojson,localadmin,85683119,figov,,,FI
"22.28787701617756,63.49911037758745,24.49271020489866,64.17896929376249",uuuu,85633143,,6184680dc10af38b0226d5b12e939742,,600605b906608d75091c8886c7a96891,63.905859,23.306553,907199049,uuuu,FI,FI,1481176856,63.929535,23.213868,0,Kokkola,85683125,907/199/049/907199049.geojson,localadmin,85683125,figov,,,FI
"28.16309323127406,62.58009207219757,28.74769245752452,62.96444401822195",uuuu,85633143,,12b1b444ce4d3b7c09697c6df61c5bbe,,49b1850c424570f1c48d66580204bc9e,62.777429,28.479543,907199053,uuuu,FI,FI,1481176857,62.787967,28.483995,0,Tuusniemi,85683131,907/199/053/907199053.geojson,localadmin,85683131,figov,,,FI
"22.41500366430425,60.56587614336759,22.6875875629535,60.73729290186384",uuuu,85633143,,2bbea2b689d732cdf8b4a9c1926db5d5,,856b4fbbb5fc2484c62470df67be218d,60.636566,22.545693,907199059,uuuu,FI,FI,1481176857,60.624350,22.543286,0,Aura,85683073,907/199/059/907199059.geojson,localadmin,85683073,figov,,,FI
"23.7976524739511,61.10192945784691,24.29712293125761,61.34382493191136",uuuu,85633143,,3168abda5aa123191893d4b47eec810d,,a08e7c35eec781acd88f738ad9f87dd2,61.217833,24.056038,907199063,uuuu,FI,FI,1481176857,61.213843,24.039069,0,Valkeakoski,85683099,907/199/063/907199063.geojson,localadmin,85683099,figov,,,FI
"21.52348900514573,62.21277110587488,21.9389813362541,62.42219912729841",uuuu,85633143,,d843bc9c7d70d2e816136f74962285cb,,d5442ddfb1504434ba1a8240ede8207a,62.325426,21.741020,907199065,uuuu,FI,FI,1481176857,62.319486,21.744142,0,Karijoki,85683113,907/199/065/907199065.geojson,localadmin,85683113,figov,,,FI
"21.9787385954268,63.61041499040849,22.82344059362497,63.83299061361925",uuuu,85633143,,8403ff34acf0266cde25567abfb172a3,,f6d64279e8572c098e779ed2d703e606,63.717466,22.393098,907199069,uuuu,FI,FI,1481176857,63.714224,22.386115,0,Pietarsaari,85683119,907/199/069/907199069.geojson,localadmin,85683119,figov,,,FI
"22.13790907066454,62.79114190256505,22.69418270881242,63.10298337009271",uuuu,85633143,,7bfe779dd12223a5af9040aa48d2122c,,0bdd1e312d5397a5a53d39b3ceb085a0,62.975597,22.342110,907199075,uuuu,FI,FI,1481176858,62.957165,22.314928,0,Isokyro,85683119,907/199/075/907199075.geojson,localadmin,85683119,figov,,,FI
"23.99196412955445,62.67555180465595,24.5195919483087,63.01327363137845",uuuu,85633143,,2730bd9f9f01f5417c94995344057c35,,d1e53f8f94883e2af6b515972b8df45c,62.840766,24.235977,907199079,uuuu,FI,FI,1481176858,62.870958,24.235428,0,Soini,85683113,907/199/079/907199079.geojson,localadmin,85683113,figov,,,FI
"24.33590943996702,62.71043046399902,25.30244349684613,63.04633199525059",uuuu,85633143,,188f1f56ab2b8bf56568c0506796401e,,ddd15e198f457de253bdcc3e474260e3,62.885657,24.773272,907199083,uuuu,FI,FI,1481176858,62.901237,24.780618,0,Karstula,85683117,907/199/083/907199083.geojson,localadmin,85683117,figov,,,FI
"23.83523622312068,62.36332637116461,24.58431588683103,62.76402749428089",uuuu,85633143,,c228eccd173845a30393f48ca8a6b5b2,,50b3cece864bf1ea3d5fe85becc7a753,62.574292,24.198926,907199089,uuuu,FI,FI,1481176859,62.590051,24.192956,0,Ahtari,85683113,907/199/089/907199089.geojson,localadmin,85683113,figov,,,FI
"24.50363922021211,62.31589543694675,25.2519130862862,62.66566288604589",uuuu,85633143,,a5c70f5035d48e34ee4027348e09de11,,34cfae9e9ae0f1394b74ea5b71bc2559,62.477375,24.862316,907199095,uuuu,FI,FI,1481176859,62.461155,24.893388,0,Multia,85683117,907/199/095/907199095.geojson,localadmin,85683117,figov,,,FI
"24.52464400530878,61.63065265669927,25.59622349834033,62.21080123621606",uuuu,85633143,,199d1767bdf072d70365fb8b2b35a681,,e9ce7723c010901cf875eda0db993f90,61.919639,25.057391,907199101,uuuu,FI,FI,1481176860,61.970777,25.065541,0,Jamsa,85683117,907/199/101/907199101.geojson,localadmin,85683117,figov,,,FI
"23.45791196357651,62.73008263669542,24.35734580606319,63.15857333521386",uuuu,85633143,,6dd61b6543ee180ef31557562ade22d1,,579f2acbaf2f31673c75447a5cd6bf1a,62.969270,23.908881,907199105,uuuu,FI,FI,1481176860,62.934362,23.840478,0,Alajarvi,85683113,907/199/105/907199105.geojson,localadmin,85683113,figov,,,FI
"24.21555744114322,62.93121542359878,24.88165794192705,63.15748059186714",uuuu,85633143,,067b4409dd6447bb41893eb33f2bfe19,,c8faf129d467b7a747083e51db034d47,63.056277,24.555601,907199107,uuuu,FI,FI,1481176860,63.057013,24.522843,0,Kyyjarvi,85683117,907/199/107/907199107.geojson,localadmin,85683117,figov,,,FI
"24.05202781696637,63.11642950969654,24.80360264332188,63.39223265196014",uuuu,85633143,,bd0da3cc48abbada8b7cc112d7cbcfc9,,34418580e2a00c7be3176d0bf569ed1c,63.256451,24.460297,907199111,uuuu,FI,FI,1481176860,63.257455,24.460343,0,Perho,85683125,907/199/111/907199111.geojson,localadmin,85683125,figov,,,FI
"24.39869764920524,60.74456928712003,24.99296806684982,61.03231491643375",uuuu,85633143,,53a60e910ec50660f198d6f84459acc9,,5a239abe14734ec688f5ac616cd1c5be,60.891367,24.685736,907199113,uuuu,FI,FI,1481176861,60.901190,24.665808,0,Janakkala,85683077,907/199/113/907199113.geojson,localadmin,85683077,figov,,,FI
"22.37368838913602,61.99810585666318,22.86162643531681,62.31110351927791",uuuu,85633143,,f820341adbd61c356e61b06b76d03009,,9cdc10a1456ad0decbfdc160496aba33,62.151589,22.615892,907199119,uuuu,FI,FI,1481176861,62.172045,22.644925,0,Karvia,85683095,907/199/119/907199119.geojson,localadmin,85683095,figov,,,FI
"21.86898621198261,62.10213559619323,22.66325398107941,62.55084328031042",uuuu,85633143,,027074281b58718a701c79fc78416fbc,,f474c7303cd654a572a1d5a335220138,62.340302,22.257460,907199121,uuuu,FI,FI,1481176861,62.338333,22.251500,0,Kauhajoki,85683113,907/199/121/907199121.geojson,localadmin,85683113,figov,,,FI
"22.52074975817403,61.89587019051677,23.36619616689818,62.28890894024894",uuuu,85633143,,c2ecb7452fc4a766bad7e7200ac6879e,,ece1f81a4aad37685af86d3c45fdc7b5,62.049788,22.978918,907199125,uuuu,FI,FI,1481176861,62.086770,22.950187,0,Parkano,85683099,907/199/125/907199125.geojson,localadmin,85683099,figov,,,FI
"22.82406852486029,61.51594201238537,23.50048253474644,61.73725966226221",uuuu,85633143,,742a853b70985463de1a2bcca5a47d8a,,0b045248244be480ccb31b6cceb9bd39,61.623524,23.178787,907199131,uuuu,FI,FI,1481176861,61.648927,23.127579,0,Hameenkyro,85683099,907/199/131/907199131.geojson,localadmin,85683099,figov,,,FI
"25.08187155393657,63.24563081168885,26.1767119202247,63.61229322864694",uuuu,85633143,,87bb3113058cda6891a97192c613a874,,d63c0690dd0456afaeb07cac3fde9f7d,63.409838,25.584149,907199135,uuuu,FI,FI,1481176862,63.393311,25.592424,0,Pihtipudas,85683117,907/199/135/907199135.geojson,localadmin,85683117,figov,,,FI
"24.77292096719699,63.23155976238185,25.33346942401561,63.46716818617797",uuuu,85633143,,0573f636539e95d7e5c2251cbe4b24dc,,42f3a7d1c21e1076759de8f10e65f62c,63.333475,25.029321,907199139,uuuu,FI,FI,1481176862,63.345074,25.029327,0,Kinnula,85683117,907/199/139/907199139.geojson,localadmin,85683117,figov,,,FI
"24.52103291839452,63.45807316171121,25.36018293592873,63.76557988869452",uuuu,85633143,,9f90f2685c36263acfb2d8352bced6f3,,b4622a0edf2bd702a60c1e33bd723620,63.622874,24.978436,907199141,uuuu,FI,FI,1481176862,63.606463,25.027476,0,Reisjarvi,85683143,907/199/141/907199141.geojson,localadmin,85683143,figov,,,FI
"24.73161122451749,63.00787925123353,25.37920238457498,63.27865420656209",uuuu,85633143,,4ebed1d016644cd00498ce02de6bb44f,,0e38c7f31204343f3887028eb2907a05,63.153486,25.053606,907199147,uuuu,FI,FI,1481176862,63.139341,25.027528,0,Kivijarvi,85683117,907/199/147/907199147.geojson,localadmin,85683117,figov,,,FI
"21.02762732726156,62.95940912808724,22.24232257107445,63.17885398314377",uuuu,85633143,,fbbec83022d753d797d0214011b6bcdf,,7463308fc897ff269784f911f7ca00d1,63.078746,21.659993,907199149,uuuu,FI,FI,1481176862,63.084086,21.502622,0,Vaasa,85683119,907/199/149/907199149.geojson,localadmin,85683119,figov,,,FI
"25.34804418259939,63.42913085227251,26.29196568735903,63.92637638519927",uuuu,85633143,,f079324afa1635653ee081cc555099f5,,3384f0eb60fe15ef23ac349fbb0c915c,63.660319,25.920425,907199151,uuuu,FI,FI,1481176862,63.649712,25.967392,0,Pyhajarvi,85683143,907/199/151/907199151.geojson,localadmin,85683143,figov,,,FI
"22.99436217135785,62.08266509887942,23.42400208859964,62.33416669929268",uuuu,85633143,,f3d266599e5a537c340e350b13125569,,5bbbffdbc31ae3172ea06adb1be39083,62.206706,23.193376,907199155,uuuu,FI,FI,1481176862,62.207443,23.197436,0,Kihnio,85683099,907/199/155/907199155.geojson,localadmin,85683099,figov,,,FI
"23.16122623131841,62.36775058014466,23.99936779338388,62.80893453876123",uuuu,85633143,,5911fb4b045d318254d1dc627ec1df36,,6650831803e0d5e7635318a8425e2f6d,62.583234,23.599328,907199157,uuuu,FI,FI,1481176862,62.567694,23.673265,0,Alavus,85683113,907/199/157/907199157.geojson,localadmin,85683113,figov,,,FI
"22.53940199132423,63.34730253447245,23.39046245481261,63.82613775249889",uuuu,85633143,,8575cd65f6213d3e823b9fe66aece3f7,,319b2eee0af94a95587e49fb98eeb6fa,63.540416,22.988702,907199161,uuuu,FI,FI,1481176863,63.520304,23.027282,0,Pedersoren kunta,85683119,907/199/161/907199161.geojson,localadmin,85683119,figov,,,FI
"22.09650316219558,63.47301940630146,23.40575867529999,64.00938191272742",uuuu,85633143,,ef6d475466d59f28417c03fe54452fea,,2f33ec4d8d58b9173f8b21d1cfc11e94,63.849281,22.531343,907199167,uuuu,FI,FI,1481176863,63.861147,22.490711,0,Luoto,85683119,907/199/167/907199167.geojson,localadmin,85683119,figov,,,FI
"23.20678003682433,62.07404034979493,24.23526969752776,62.49433390077814",uuuu,85633143,,4529c40dfc3898255f0f2bed2c988ff6,,79a4ad2aad0badb207b7274bb74797b9,62.272565,23.703014,907199171,uuuu,FI,FI,1481176863,62.246328,23.668187,0,Virrat,85683099,907/199/171/907199171.geojson,localadmin,85683099,figov,,,FI
"24.40854248355818,63.3586841160755,25.03631555526148,63.65323763635659",uuuu,85633143,,c9a9d79f1b466338166791bff295e7fe,,1bfa86f8e6441e8cb7e52163899f235d,63.499793,24.697492,907199175,uuuu,FI,FI,1481176863,63.499436,24.697556,0,Lestijarvi,85683125,907/199/175/907199175.geojson,localadmin,85683125,figov,,,FI
"24.01300320898739,62.02319174960275,25.07185396497244,62.52968476283515",uuuu,85633143,,8fc684ac6c1564eb4606c102ecd9f07a,,f1cd305fd71c701f737682fa4541e877,62.292033,24.536516,907199179,uuuu,FI,FI,1481176864,62.338390,24.456652,0,Keuruu,85683117,907/199/179/907199179.geojson,localadmin,85683117,figov,,,FI
"23.89019248453044,61.31578132739418,24.97047991757704,61.62719129079598",uuuu,85633143,,9978e54b52fc9ea5d479ad0e4bf7a478,,a8b494358f894d6f0290082e5b570b39,61.480662,24.315779,907199185,uuuu,FI,FI,1481176864,61.493324,24.127972,0,Kangasala,85683099,907/199/185/907199185.geojson,localadmin,85683099,figov,,,FI
"24.07913913577805,61.23328259578189,24.91513618201243,61.4910067084804",uuuu,85633143,,27e2e35d91f70b8f7279ab83e98dd821,,45b859e1eee75b869f8d66a34a20d462,61.350925,24.525528,907199187,uuuu,FI,FI,1481176864,61.336582,24.380081,0,Palkane,85683099,907/199/187/907199187.geojson,localadmin,85683099,figov,,,FI
"25.12474570961523,62.37705719071283,25.69515070514978,62.55690665658128",uuuu,85633143,,b5b47802ab8f337b0a4b8e213a2a4a04,,9e9b12feab52c3f06f68f4b338415a99,62.472029,25.411253,907199197,uuuu,FI,FI,1481176864,62.458978,25.434520,0,Uurainen,85683117,907/199/197/907199197.geojson,localadmin,85683117,figov,,,FI
"25.57913327367158,62.18127851817095,26.33096352845449,62.58358582176977",uuuu,85633143,,3e6ff297946dc14d1055027c1aff7218,,dc942e35938fb541622a0e706df6a29a,62.391429,26.005924,907199203,uuuu,FI,FI,1481176864,62.422779,26.011587,0,Laukaa,85683117,907/199/203/907199203.geojson,localadmin,85683117,figov,,,FI
"25.47397444723993,62.48043791767622,26.23376425566185,62.92077531518138",uuuu,85633143,,8ca8bfff6478dc0238004b35b7852aaf,,947d1e43277809d3987a6eee78b70761,62.704483,25.826888,907199205,uuuu,FI,FI,1481176864,62.713392,25.857621,0,Aanekoski,85683117,907/199/205/907199205.geojson,localadmin,85683117,figov,,,FI
"22.57462629166129,60.36433386375204,22.87591367883135,60.54805052634995",uuuu,85633143,,bb55ad100dc70f22071ef308ed24b276,,9db76307b71484d31b3ee33e3e629eb5,60.453381,22.722265,907199209,uuuu,FI,FI,1481176865,60.460842,22.710094,0,Paimio,85683073,907/199/209/907199209.geojson,localadmin,85683073,figov,,,FI
"24.5042385617175,62.52083322227526,25.6966011188318,62.90955990992163",uuuu,85633143,,51b0b87186886b250486633b30b2f3c5,,0f6fb1a0da768404491dc66803f38a9c,62.702362,25.132313,907199213,uuuu,FI,FI,1481176865,62.709257,25.091621,0,Saarijarvi,85683117,907/199/213/907199213.geojson,localadmin,85683117,figov,,,FI
"24.96880813557654,62.15236216442013,25.48906755521272,62.42701340706523",uuuu,85633143,,d740acfa56514192bf7474135c9c8a4b,,62ea6ecf6a77cb42cac48e1a026a3500,62.290287,25.219935,907199215,uuuu,FI,FI,1481176865,62.290586,25.193900,0,Petajavesi,85683117,907/199/215/907199215.geojson,localadmin,85683117,figov,,,FI
"24.00596271902049,60.85743155869247,24.62439645890576,61.24011631511001",uuuu,85633143,,78339ed584d742d0295fc3bdb1a5064c,,65d5921963d1de0441738aa67ed29e2a,61.044191,24.286468,907199219,uuuu,FI,FI,1481176865,61.099971,24.337750,0,Hattula,85683077,907/199/219/907199219.geojson,localadmin,85683077,figov,,,FI
"25.30931762408476,62.8683080341869,26.33427413384692,63.28983067238712",uuuu,85633143,,8665ca3d527026abdc0910cd46c4e252,,0e67346c037912a949b919410f0a96dd,63.101980,25.821369,907199223,uuuu,FI,FI,1481176865,63.090508,25.811649,0,Viitasaari,85683117,907/199/223/907199223.geojson,localadmin,85683117,figov,,,FI
"25.04351359252555,62.81846394109721,25.70748413261575,63.09926922308387",uuuu,85633143,,390db334b8b86b12ebd2408e5a874dbc,,ea9bf58e631837098dec43cffb632250,62.968735,25.340264,907199227,uuuu,FI,FI,1481176866,62.967518,25.335293,0,Kannonkoski,85683117,907/199/227/907199227.geojson,localadmin,85683117,figov,,,FI
"23.54229989659255,61.42736849041322,24.11851674326715,61.83661390029928",uuuu,85633143,,f182b6fa50ff5d7cb916ff59a37e3d21,,2c0d07b256fae7ae4b22ab9dba12e341,61.629284,23.881450,907199231,uuuu,FI,FI,1481176866,61.626087,23.881535,0,Tampere,85683099,907/199/231/907199231.geojson,localadmin,85683099,figov,,,FI
"22.55284209433923,62.9995617044697,23.47176866797023,63.39896142690465",uuuu,85633143,,e0e77f52e31756c5c1d19de912afd3f4,,0380101d50c43c7ea2274593146cb609,63.196586,23.027307,907199237,uuuu,FI,FI,1481176866,63.198926,23.064518,0,Kauhava,85683113,907/199/237/907199237.geojson,localadmin,85683113,figov,,,FI
"22.78415256441746,62.77470937779591,23.54053997076365,63.10621957909714",uuuu,85633143,,2a0f4701b525e4760a47a341b9267492,,e931f3615e9a28fbb4f0e96e74f0dd4a,62.945374,23.149779,907199241,uuuu,FI,FI,1481176866,62.927884,23.186575,0,Lapua,85683113,907/199/241/907199241.geojson,localadmin,85683113,figov,,,FI
"23.75675671193819,60.75397972531317,25.26966275996735,61.32488132705843",uuuu,85633143,,c3540b9bb7e0dc0b23b14c5785213483,,5f3b53f5cb4676e5ce638aae44df2fe6,61.074795,24.576690,907199245,uuuu,FI,FI,1481176867,61.152282,24.702818,0,Hameenlinna,85683077,907/199/245/907199245.geojson,localadmin,85683077,figov,,,FI
"23.28031367038063,62.97908994036597,23.86248660554267,63.37894282647449",uuuu,85633143,,782c15b48c09e00540a56f509b0436e5,,c2a345f77badc8246f7cf6cba8a2fe2c,63.190419,23.597421,907199255,uuuu,FI,FI,1481176868,63.183523,23.591944,0,Lappajarvi,85683113,907/199/255/907199255.geojson,localadmin,85683113,figov,,,FI
"25.47059998669176,62.06355418986612,25.79524176680019,62.2428266456949",uuuu,85633143,,f524fbfb2b587e62ac6963bc9e217f41,,4aec19149fc6f54a2b0b4e82be2acffc,62.139976,25.618551,907199257,uuuu,FI,FI,1481176868,62.130584,25.629616,0,Muurame,85683117,907/199/257/907199257.geojson,localadmin,85683117,figov,,,FI
"22.79921405509194,60.51088294186841,23.10071718769376,60.71567972492354",uuuu,85633143,,4b56f33a0725a88009c9e1f12ce60269,,b6cd3045746e27f78d0296916e25bceb,60.601227,22.934454,907199259,uuuu,FI,FI,1481176868,60.614054,22.932206,0,Marttila,85683073,907/199/259/907199259.geojson,localadmin,85683073,figov,,,FI
"26.03983779074563,62.74702056774758,26.68134602043209,63.04391615604984",uuuu,85633143,,58f739e0cb5aaf9790addae562f5a0a8,,f67ea07a4ae8b722f45bf5d1e86cabfb,62.899272,26.385492,907199263,uuuu,FI,FI,1481176868,62.902115,26.417209,0,Vesanto,85683131,907/199/263/907199263.geojson,localadmin,85683131,figov,,,FI
"25.26078034871812,61.83921142902496,26.05134621511128,62.42874557185011",uuuu,85633143,,44b702114a9fc43018b9e3d2cd9d8846,,cd5ec45d9c8745f8cef362a174927955,62.131113,25.647388,907199265,uuuu,FI,FI,1481176868,61.966051,25.686058,0,Jyvaskyla,85683117,907/199/265/907199265.geojson,localadmin,85683117,figov,,,FI
"26.02479732175631,62.47851368420447,26.59908838184791,62.84820291711079",uuuu,85633143,,2115424d04d15fd7be092d180b5303ee,,b1ab53816cad37649229df02e8d3adb8,62.657760,26.310455,907199269,uuuu,FI,FI,1481176868,62.649028,26.329861,0,Konnevesi,85683117,907/199/269/907199269.geojson,localadmin,85683117,figov,,,FI
"23.69794613208651,63.07548536167125,24.23448090582087,63.30857616504913",uuuu,85633143,,c4840109a0d24c891b4cd0551f1c17b1,,10088e65000e7a6e0d2d7f3830553206,63.181305,23.941227,907199273,uuuu,FI,FI,1481176868,63.193524,23.938057,0,Vimpeli,85683113,907/199/273/907199273.geojson,localadmin,85683113,figov,,,FI
"23.20830134796826,61.51608736778695,23.8851107196477,62.16500744678824",uuuu,85633143,,52d4837fd01dded50cf8170a0385c69f,,75c1492acbfdebbe4b74218e3e12f86d,61.840659,23.563841,907199275,uuuu,FI,FI,1481176869,61.985568,23.540808,0,Ylojarvi,85683099,907/199/275/907199275.geojson,localadmin,85683099,figov,,,FI
"26.07054058656673,62.99183411730044,26.62245686564777,63.44336741873708",uuuu,85633143,,1e6019e799afa0b842e2a0e3b69727e2,,3ca536dc37933b028447e328a2203eb1,63.196730,26.315587,907199277,uuuu,FI,FI,1481176869,63.177655,26.315512,0,Keitele,85683131,907/199/277/907199277.geojson,localadmin,85683131,figov,,,FI
"23.54626991286786,61.23071175101391,23.96730944794981,61.43238608809424",uuuu,85633143,,48bbc2eca37c75cdea023d2abd38dd26,,929bee311ed5658a70034c0731f73dfc,61.345567,23.777681,907199279,uuuu,FI,FI,1481176869,61.343815,23.794735,0,Lempaala,85683099,907/199/279/907199279.geojson,localadmin,85683099,figov,,,FI
"23.47723852757606,61.35684839838166,23.74184753848438,61.48745822722757",uuuu,85633143,,523ae71a9bb53d269e2071b0809a6f39,,ae9ffebf5cbee4b87d204088c0e1cc01,61.433833,23.607029,907199281,uuuu,FI,FI,1481176869,61.440859,23.609085,0,Pirkkala,85683099,907/199/281/907199281.geojson,localadmin,85683099,figov,,,FI
"23.19613813645103,63.26362635042403,23.72379304400346,63.49804665247343",uuuu,85633143,,2786a5088874da71dfcdda2b150d99ad,,99a627f84d31365b45464cd9084fab42,63.384755,23.443019,907199283,uuuu,FI,FI,1481176869,63.383341,23.438037,0,Evijarvi,85683113,907/199/283/907199283.geojson,localadmin,85683113,figov,,,FI
"22.30262091617788,62.31919794717647,23.36780316804873,63.08536492483618",uuuu,85633143,,9e677dd9157b8d41e6ee7dc35b49cab7,,a71ee47245a1188e54882a2c9c6bacca,62.742064,22.903655,907199285,uuuu,FI,FI,1481176869,62.692972,22.999388,0,Seinajoki,85683113,907/199/285/907199285.geojson,localadmin,85683113,figov,,,FI
"26.13863975456069,63.04207093817931,27.14813809304456,63.51640785065364",uuuu,85633143,,0f294002a8fc2fd8f2c760e66e37bd34,,2b4aa860bf2745f59f90cf4f0b6d1d04,63.286985,26.682794,907199287,uuuu,FI,FI,1481176870,63.248037,26.675583,0,Pielavesi,85683131,907/199/287/907199287.geojson,localadmin,85683131,figov,,,FI
"23.27125520642899,62.64826954522068,23.84704884263356,62.91973226663121",uuuu,85633143,,12847a7cbb03b33ce818ecce8f5634e0,,994224a4641b8ee30a67a64d04a35a3c,62.783909,23.510931,907199291,uuuu,FI,FI,1481176871,62.789766,23.515279,0,Kuortane,85683113,907/199/291/907199291.geojson,localadmin,85683113,figov,,,FI
"23.65741239946561,63.25814496233361,24.19786780659888,63.53742730654247",uuuu,85633143,,51ab4b0f6d0acf5f69976d4d81aff64d,,1b100b3dc48f24ee1445599f6091595b,63.399268,23.908133,907199293,uuuu,FI,FI,1481176871,63.393040,23.886276,0,Veteli,85683125,907/199/293/907199293.geojson,localadmin,85683125,figov,,,FI
"23.68062235784016,61.78716094006322,24.45307330696098,62.1820265692716",uuuu,85633143,,f65ecd79a3f583e68e61d143c66b8ee9,,c03360d73b1a6ff345ef717246e5bfb9,61.969718,24.052573,907199295,uuuu,FI,FI,1481176871,61.956537,24.026218,0,Ruovesi,85683099,907/199/295/907199295.geojson,localadmin,85683099,figov,,,FI
"22.67944081548424,61.67513930660757,23.59387529150075,61.98446050214893",uuuu,85633143,,a38c3b7c25420c60cb0ed80ebd82ca53,,cd147467d5d24b675aa121082ca3760e,61.825278,23.083091,907199297,uuuu,FI,FI,1481176871,61.825181,23.083668,0,Ikaalinen,85683099,907/199/297/907199297.geojson,localadmin,85683099,figov,,,FI
"22.03482430317224,61.6860667420746,22.69515339654093,62.01172211759453",uuuu,85633143,,ee666743ffbc74bbac59af9be1ad2a5a,,fd83e125a67127ff5d941d9fdf1c895d,61.839604,22.392721,907199299,uuuu,FI,FI,1481176872,61.843191,22.397930,0,Kankaanpaa,85683095,907/199/299/907199299.geojson,localadmin,85683095,figov,,,FI
"24.03400427070764,63.33191847148004,24.5548297918411,63.57705505305616",uuuu,85633143,,48ecdd219ee1c1cd0fcdb936de22f32a,,21f180d51ad1f467d11e3e59fbb4f5d4,63.449030,24.281146,907199301,uuuu,FI,FI,1481176872,63.432299,24.260129,0,Halsua,85683125,907/199/301/907199301.geojson,localadmin,85683125,figov,,,FI
"23.42240719343305,63.48297283571019,24.09894678736138,63.67543699310367",uuuu,85633143,,9f19c4e695bc276d7b24b2fc78393e8d,,55a93aed2ac1741a21fca1698ef178e1,63.584655,23.771196,907199305,uuuu,FI,FI,1481176872,63.592384,23.747076,0,Kaustinen,85683125,907/199/305/907199305.geojson,localadmin,85683125,figov,,,FI
"23.97537404002175,63.56600432270496,24.61503476417386,63.88622133729501",uuuu,85633143,,7cd442e837709fd5f4079434d4fd4f54,,f50d31b8ef64b440e6ba1e578f20e582,63.734690,24.293394,907199309,uuuu,FI,FI,1481176872,63.726972,24.325145,0,Toholampi,85683125,907/199/309/907199309.geojson,localadmin,85683125,figov,,,FI
"28.38594734274567,62.77293711343578,29.09760216287223,63.13671545492408",uuuu,85633143,,26f3afbe5a10824df71f16cdc252346f,,3b71eced799cf46734be407cbcc90483,62.970736,28.742179,907199313,uuuu,FI,FI,1481176872,62.989989,28.736812,0,Kaavi,85683131,907/199/313/907199313.geojson,localadmin,85683131,figov,,,FI
"27.79660651144241,63.66881147622885,29.21103105652443,64.37523099912639",uuuu,85633143,,aafe4f04e9f48eedf6c4b79070b1606b,,19a3f6078b6630666b4aa5acd3df7a00,64.048119,28.445691,907199319,uuuu,FI,FI,1481176872,64.068241,28.280036,0,Sotkamo,85683137,907/199/319/907199319.geojson,localadmin,85683137,figov,,,FI
"28.0376855292885,63.20383531983484,28.75952580328222,63.75500213322944",uuuu,85633143,,230b09154483f7a15f33942ad72657d7,,865319ebf1527707d06eb74efea99431,63.491167,28.404017,907199323,uuuu,FI,FI,1481176872,63.535958,28.433785,0,Rautavaara,85683131,907/199/323/907199323.geojson,localadmin,85683131,figov,,,FI
"27.11927114176967,63.50241583038265,28.16808410408863,63.9976275629266",uuuu,85633143,,335da6a0328bbf9fe5cc26d5962e602f,,664a14bb0f33c85a73ca280249e03e3b,63.737841,27.663224,907199331,uuuu,FI,FI,1481176873,63.710461,27.698810,0,Sonkajarvi,85683131,907/199/331/907199331.geojson,localadmin,85683131,figov,,,FI
"27.97028343436137,62.94101231431315,28.76238681436029,63.27867865074079",uuuu,85633143,,6f42d499ff60540a3c0ee8e34982f3f3,,a2f9fbc51163d656d8aa9696fdc1b6c0,63.096159,28.352068,907199339,uuuu,FI,FI,1481176874,63.035822,28.292011,0,Juankoski,85683131,907/199/339/907199339.geojson,localadmin,85683131,figov,,,FI
"24.12707841476684,63.64865835265027,24.96876053886418,64.03021138390093",uuuu,85633143,,a4f3e26d3e0642257fd4c15a3f84e144,,3828bb120649a3e9a2626fbeef76941c,63.841627,24.592272,907199347,uuuu,FI,FI,1481176874,63.829297,24.621520,0,Sievi,85683143,907/199/347/907199347.geojson,localadmin,85683143,figov,,,FI
"26.79402862627019,63.29928637701647,27.66784963097873,63.6895765558991",uuuu,85633143,,99d5ff382b6e971bb9a9647ff36a2ccf,,6a8c2f251fac4f47dab2047c2e9f5df5,63.527870,27.154878,907199351,uuuu,FI,FI,1481176874,63.526836,27.111914,0,Iisalmi,85683131,907/199/351/907199351.geojson,localadmin,85683131,figov,,,FI
"26.55939476355929,63.61050472292555,27.35757926549384,64.03697382382272",uuuu,85633143,,f2f0094c10efdab586f392d200e6b1fe,,180a596fa6171016ae5f0a12159a978b,63.843863,26.998432,907199359,uuuu,FI,FI,1481176876,63.844981,27.004396,0,Vierema,85683131,907/199/359/907199359.geojson,localadmin,85683131,figov,,,FI
"26.48572226486699,62.79628042211482,27.14244266886201,63.13167557416649",uuuu,85633143,,dac7f6b42e2ef1946bd552dbd2f70eaa,,7d0a4466eb9476e969a66221a19a1a3f,62.971690,26.816085,907199369,uuuu,FI,FI,1481176876,62.939451,26.785878,0,Tervo,85683131,907/199/369/907199369.geojson,localadmin,85683131,figov,,,FI
"27.11909180742632,63.15376215779113,28.13051968261632,63.55011725706942",uuuu,85633143,,028995ed5e4118a0533f08fab69f84fa,,9287e1a99d1ed1feaa73bc73efa4ddbe,63.372543,27.629782,907199373,uuuu,FI,FI,1481176877,63.335405,27.511397,0,Lapinlahti,85683131,907/199/373/907199373.geojson,localadmin,85683131,figov,,,FI
"24.22741548521645,61.71553823952675,24.66665126986731,61.92843796744405",uuuu,85633143,,2b56bb5f54aed524c651f2cc12a9c9ac,,30442c695283ebd20c55314a9a8a901b,61.823992,24.471185,907199385,uuuu,FI,FI,1481176878,61.820122,24.504448,0,Juupajoki,85683099,907/199/385/907199385.geojson,localadmin,85683099,figov,,,FI
"28.61080412670502,62.9684677164756,29.79398925625392,63.44971556157395",uuuu,85633143,,b435d91be90ff5a46642388c44919641,,f9c7a9a27819a8a4660e15a6dd5bc1ad,63.207690,29.182188,907199389,uuuu,FI,FI,1481176878,63.226932,29.141567,0,Juuka,85683133,907/199/389/907199389.geojson,localadmin,85683133,figov,,,FI
"24.07839819452456,61.51374196426175,24.91693889641801,61.86298950628996",uuuu,85633143,,a39c42754b70e81b86d54bab7a8ed932,,ea380e4205c797e7ccbe4d93205a6c90,61.672536,24.468864,907199393,uuuu,FI,FI,1481176878,61.642733,24.455694,0,Orivesi,85683099,907/199/393/907199393.geojson,localadmin,85683099,figov,,,FI
"28.93090991024399,62.68085356590781,29.72325470709382,63.10957348200539",uuuu,85633143,,5910b63ab99011f306e918cd9cbfe4ba,,1e9f3e34b79e5f6e0d841348b9dec8d1,62.893869,29.357917,907199399,uuuu,FI,FI,1481176879,62.892967,29.384911,0,Polvijarvi,85683133,907/199/399/907199399.geojson,localadmin,85683133,figov,,,FI
"28.35972342123059,63.55808920413434,29.20486527801991,63.88241466808729",uuuu,85633143,,588fa2a0d232ffa114d30ee020599186,,5c7c7013904c7861c88c097f74c9d3fb,63.737356,28.757498,907199405,uuuu,FI,FI,1481176879,63.720822,28.751156,0,Valtimo,85683133,907/199/405/907199405.geojson,localadmin,85683133,figov,,,FI
"28.60343023112783,63.34785020136341,29.7756890205331,63.8789423237785",uuuu,85633143,,193419edb2b7b6fd452d7612fae530be,,cf80a901d3c9dad07c3d36761b69c00d,63.608009,29.242809,907199409,uuuu,FI,FI,1481176879,63.588807,29.300464,0,Nurmes,85683133,907/199/409/907199409.geojson,localadmin,85683133,figov,,,FI
"29.9496409094768,62.06066038976366,30.78918186127443,62.41634916664168",uuuu,85633143,,52039eb437e5a603967d16a3167f3941,,989654f71f0e516307013d381f30813f,62.255202,30.381995,907199417,uuuu,FI,FI,1481176879,62.223983,30.388226,0,Tohmajarvi,85683133,907/199/417/907199417.geojson,localadmin,85683133,figov,,,FI
"27.33788223351456,62.9518722353931,27.94916546668651,63.25183735593914",uuuu,85633143,,08372fcacc2dbe87d1b8f36d723238c1,,961480b61e30e29d927ad3e91857cf13,63.081610,27.656502,907199425,uuuu,FI,FI,1481176880,63.076802,27.631005,0,Siilinjarvi,85683131,907/199/425/907199425.geojson,localadmin,85683131,figov,,,FI
"24.13708225236818,64.0417517729803,24.58951286922465,64.3000942243635",uuuu,85633143,,4dadaf333fd623de92c34cb600d0d25f,,cc793b5f630f2469ca8b6ed51d0d8806,64.180744,24.332533,907199429,uuuu,FI,FI,1481176880,64.155104,24.310069,0,Alavieska,85683143,907/199/429/907199429.geojson,localadmin,85683143,figov,,,FI
"24.03859130743806,64.89846424704376,25.134789950981,65.17394152025",uuuu,85633143,,5bf04ff32f305d1eabd93c8ccf6cb1bb,,43b928d4ced5c7a40c413628fc23c447,65.047941,24.580362,907199435,uuuu,FI,FI,1481176880,65.040431,24.580362,0,Hailuoto,85683143,907/199/435/907199435.geojson,localadmin,85683143,figov,,,FI
"24.30396533087073,63.9424085419791,25.02124545993965,64.18501731891433",uuuu,85633143,,cd98f5f5e36649445a22763e5dfae29f,,572dc1c56b2e8ef73df71f7c63299e92,64.062041,24.645263,907199437,uuuu,FI,FI,1481176880,64.070245,24.641656,0,Ylivieska,85683143,907/199/437/907199437.geojson,localadmin,85683143,figov,,,FI
"23.45312187344879,60.7795278393477,23.83933958927122,61.00903353162333",uuuu,85633143,,efc3f4b543c9ca0f3dcfd7184d2069cd,,f221aed72d3d58930f4ca7531f57e514,60.916298,23.638841,907199441,uuuu,FI,FI,1481176881,60.939794,23.652001,0,Forssa,85683077,907/199/441/907199441.geojson,localadmin,85683077,figov,,,FI
"29.56004320474611,62.56624384838107,30.28800509499564,63.06575184272712",uuuu,85633143,,68905068830f7e7610c61f032f5b7736,,61eede7ee45145e75c99d3186f6cc834,62.786039,29.873607,907199445,uuuu,FI,FI,1481176881,62.778290,29.848855,0,Kontiolahti,85683133,907/199/445/907199445.geojson,localadmin,85683133,figov,,,FI
"23.69070253515508,64.31284226129307,25.46292665138188,64.8547767165549",uuuu,85633143,,159a61fb0b651e6eb9ba5190698b9772,,254734ece960c98eb5a2c407336a71d0,64.600320,24.523181,907199449,uuuu,FI,FI,1481176881,64.640782,24.522678,0,Raahe,85683143,907/199/449/907199449.geojson,localadmin,85683143,figov,,,FI
"26.74840418344325,63.84457009113705,28.15804864634333,64.36517011698817",uuuu,85633143,,30a8b0580fc1d325c6ccbd283854c4d4,,2942c37791a25aa8b0dae0683200cba2,64.135277,27.433991,907199455,uuuu,FI,FI,1481176881,64.134789,27.539961,0,Kajaani,85683137,907/199/455/907199455.geojson,localadmin,85683137,figov,,,FI
"24.11492550026504,64.84441584745777,26.77156177205878,65.5726205196945",uuuu,85633143,,a9fb7dc7d768f1d6411745306880721e,,e22713d1e9b9647b83b316e2cabc06e7,65.154062,25.755186,907199459,uuuu,FI,FI,1481176881,65.157043,25.781343,0,Oulu,85683143,907/199/459/907199459.geojson,localadmin,85683143,figov,,,FI
"25.52503398399918,63.78687503986532,26.25138663597971,64.1106440026155",uuuu,85633143,,5ee6a352b69cef1a98ce3c90c1296b7f,,6387bc70948fddd0e8c65443fb5fadaf,63.960118,25.859749,907199465,uuuu,FI,FI,1481176882,63.965104,25.859620,0,Karsamaki,85683143,907/199/465/907199465.geojson,localadmin,85683143,figov,,,FI
"24.86517033702238,63.92160249969703,25.85458226843343,64.37353915917787",uuuu,85633143,,d433dc12229413bb2ea85bbb01e61842,,8d9ad2b9d2e23da15dfd38e1b8524144,64.134837,25.361633,907199471,uuuu,FI,FI,1481176882,64.127861,25.392588,0,Haapavesi,85683143,907/199/471/907199471.geojson,localadmin,85683143,figov,,,FI
"27.18001230285161,64.29289060896438,28.46305935975376,64.58163845989382",uuuu,85633143,,a74a5348582dd51cd158c0a63c15e69e,,fb95afad24826dbff088bf1520af9a39,64.423979,27.726171,907199475,uuuu,FI,FI,1481176882,64.441553,27.725216,0,Paltamo,85683137,907/199/475/907199475.geojson,localadmin,85683137,figov,,,FI
"25.74998929102003,64.47906385912783,26.73803446942461,64.98085556872847",uuuu,85633143,,bfd60437f0f7c9750dc1eca1e19da4ee,,02d87c9f06d509378a8293c285f4a8a0,64.758494,26.134573,907199477,uuuu,FI,FI,1481176882,64.798349,26.072087,0,Muhos,85683143,907/199/477/907199477.geojson,localadmin,85683143,figov,,,FI
"25.42569358360431,64.84247590799859,25.72922564431839,64.94826372197946",uuuu,85633143,,65565d535cc0ad3839e99bf973b15dca,,640a77695f42c9183421d9aa614d483e,64.898536,25.573408,907199479,uuuu,FI,FI,1481176883,64.892831,25.585613,0,Kempele,85683143,907/199/479/907199479.geojson,localadmin,85683143,figov,,,FI
"26.16538313073634,63.43163442565302,26.92490032779767,63.96548102417691",uuuu,85633143,,afabf1398ab29871ee979156ff4fac0d,,fda3156ac9523a31095760a17a864989,63.681577,26.536472,907199481,uuuu,FI,FI,1481176883,63.687950,26.529327,0,Kiuruvesi,85683131,907/199/481/907199481.geojson,localadmin,85683131,figov,,,FI
"24.15016128974834,65.29248017070428,25.93919089271954,66.116238930678",uuuu,85633143,,328563c77b3a568f18accfe52bcade38,,e8a1f05d22215f920bdb3914a31e37ba,65.742067,25.155659,907199485,uuuu,FI,FI,1481176884,65.920314,25.515036,0,Simo,85683147,907/199/485/907199485.geojson,localadmin,85683147,figov,,,FI
"24.26459312313855,64.18645318767186,24.83628138612842,64.39924893662278",uuuu,85633143,,ca63ec74a9c8414020621f4f4d5034a3,,aa5bdd84e248cd2fb6db1709fc7c5582,64.303332,24.507316,907199489,uuuu,FI,FI,1481176884,64.285355,24.477872,0,Merijarvi,85683143,907/199/489/907199489.geojson,localadmin,85683143,figov,,,FI
"26.09287523939438,63.84103548015963,26.87040219456655,64.28258343552262",uuuu,85633143,,133f8dd050cc7c1b45933838264a2c47,,549ea44913687ef4aac6acc4e8e8f1e0,64.070590,26.474155,907199491,uuuu,FI,FI,1481176884,64.069407,26.439567,0,Pyhanta,85683143,907/199/491/907199491.geojson,localadmin,85683143,figov,,,FI
"25.68100410695633,65.70064007045512,27.49458756106837,66.30189363182102",uuuu,85633143,,1da3d578dc415a480630d57bb623f0ba,,2cbb2a8a33c79302bb095f38379211e8,65.980488,26.616803,907199493,uuuu,FI,FI,1481176884,65.963607,26.616684,0,Ranua,85683147,907/199/493/907199493.geojson,localadmin,85683147,figov,,,FI
"26.15185320032113,65.08719388452486,28.16431220637686,65.96035961096653",uuuu,85633143,,fc25c917a8d06fe6e355f79befa9ed66,,d477e69dc505bd336f5c4e7f22d18919,65.448773,27.128770,907199499,uuuu,FI,FI,1481176884,65.435676,27.143765,0,Pudasjarvi,85683143,907/199/499/907199499.geojson,localadmin,85683143,figov,,,FI
"27.99558224642037,64.56629124383323,30.13583787927092,65.52085155098642",uuuu,85633143,,6dc7226e6c286ff627081403555afac9,,834e6d358afc339f5777ecf52e775708,65.045497,29.122098,907199501,uuuu,FI,FI,1481176885,65.059194,29.122182,0,Suomussalmi,85683137,907/199/501/907199501.geojson,localadmin,85683137,figov,,,FI
"27.71254001197219,65.25034867671087,29.21928697773003,65.84620753414579",uuuu,85633143,,963b9bc2717ed5ac5e69db9f1b824984,,35c715aed45c6bf3b66d59ceea472172,65.560305,28.352430,907199503,uuuu,FI,FI,1481176885,65.546257,28.352669,0,Taivalkoski,85683143,907/199/503/907199503.geojson,localadmin,85683143,figov,,,FI
"28.75194582383585,63.70335637386381,30.55355721741032,64.6353632001987",uuuu,85633143,,2b797e22ac861b381ed1d873de9fc562,,8c61780b695b25f66c4cbe3f6b2eeb60,64.180840,29.672451,907199507,uuuu,FI,FI,1481176885,64.253658,29.672422,0,Kuhmo,85683137,907/199/507/907199507.geojson,localadmin,85683137,figov,,,FI
"26.14101079426602,64.55819217354349,27.40536349059879,65.10682408864301",uuuu,85633143,,c801775fb756262fd8dddb4f9cd69cd0,,92409d9763338a207ff6738116d409c8,64.861881,26.822893,907199509,uuuu,FI,FI,1481176885,64.931465,26.930946,0,Utajarvi,85683143,907/199/509/907199509.geojson,localadmin,85683143,figov,,,FI
"27.1184424542489,64.50259251891636,28.29430134880324,65.22275874371022",uuuu,85633143,,5045f68e438832b356c05d354d3c50f5,,acf62b4f3aec30101a009418845c94c0,64.856500,27.744056,907199513,uuuu,FI,FI,1481176885,64.824916,27.703885,0,Puolanka,85683137,907/199/513/907199513.geojson,localadmin,85683137,figov,,,FI
"24.53102273409104,64.10945082414834,25.26298499525391,64.40609892446201",uuuu,85633143,,8ef5909fa7ffb4221342790df06959a1,,5dbf2cf108b4adfa392ebd30c61dd095,64.255445,24.876091,907199517,uuuu,FI,FI,1481176885,64.267959,24.876242,0,Oulainen,85683143,907/199/517/907199517.geojson,localadmin,85683143,figov,,,FI
"28.36824657816498,65.48797037260847,30.13846320606936,66.48585323275728",uuuu,85633143,,c263d611908831de20639db2f23ccec5,,f086e2d659323f3ce420c3a3eb638a71,65.971529,29.274590,907199519,uuuu,FI,FI,1481176886,65.963874,29.257641,0,Kuusamo,85683143,907/199/519/907199519.geojson,localadmin,85683143,figov,,,FI
"30.35886474731211,62.38495093305804,31.58670394075699,63.19513312913887",uuuu,85633143,,5d15df96df42fe25cc6bcecb1652ac9e,,b75287eb919db252bbd5cedc93f23e02,62.836843,30.994998,907199525,uuuu,FI,FI,1481176886,62.821886,31.054810,0,Ilomantsi,85683133,907/199/525/907199525.geojson,localadmin,85683133,figov,,,FI
"27.8704797512931,64.30734474918772,28.85983730938231,64.6560499266929",uuuu,85633143,,9854418762f3d84cdd247a72d1d95ab4,,2d2679c3979db8b1e1d48bf17a0cb92e,64.484894,28.429144,907199527,uuuu,FI,FI,1481176886,64.487743,28.436792,0,Ristijarvi,85683137,907/199/527/907199527.geojson,localadmin,85683137,figov,,,FI
"28.04760594042347,64.44986687404179,29.4594557551093,64.89837490872458",uuuu,85633143,,f75e2520b70671bbe9d1d789a011eab2,,bda778dcd71cdd07a01b099f84ce26ab,64.651104,28.695339,907199531,uuuu,FI,FI,1481176886,64.705874,28.507581,0,Hyrynsalmi,85683137,907/199/531/907199531.geojson,localadmin,85683137,figov,,,FI
"27.2339350791974,65.80059489711729,28.7684252910372,66.49225416364995",uuuu,85633143,,2327d2575e0e6764a0a3a06cb8e132a7,,752fe2e152491858f712b7ec3d527c25,66.151453,28.045191,907199533,uuuu,FI,FI,1481176886,66.121573,28.057082,0,Posio,85683147,907/199/533/907199533.geojson,localadmin,85683147,figov,,,FI
"24.95325973646838,64.73425579368009,25.33018219238794,64.98422028795082",uuuu,85633143,,81b778ae382255b125d0731746ea8db4,,5b430aad1b366931e7a80238b9cbcb69,64.856381,25.126925,907199537,uuuu,FI,FI,1481176887,64.851246,25.124068,0,Lumijoki,85683143,907/199/537/907199537.geojson,localadmin,85683143,figov,,,FI
"26.46814458854882,66.28906765570899,28.27240922883473,67.04302689498886",uuuu,85633143,,9d1f77dcb8e9e70d7baa78eaf81b773e,,b3d9edf562a9b2f635cde57b697b3433,66.687963,27.359282,907199539,uuuu,FI,FI,1481176887,66.671394,27.346133,0,Kemijarvi,85683147,907/199/539/907199539.geojson,localadmin,85683147,figov,,,FI
"24.49407833110134,65.94379033992033,26.06732437084384,66.33764095796639",uuuu,85633143,,93a52b441c9dfeb8a52bc8481da9f9e3,,1a4622bcbeafa31d7850a584713de868,66.131711,25.088908,907199545,uuuu,FI,FI,1481176887,66.128170,25.034395,0,Tervola,85683147,907/199/545/907199545.geojson,localadmin,85683147,figov,,,FI
"23.64287767616307,66.16527539921758,25.05041074059946,66.76564016641692",uuuu,85633143,,f2897b79380abb51772f28c8311f2f11,,eff169eac92c0ffe4fc83fa8b8fc5038,66.449863,24.387168,907199549,uuuu,FI,FI,1481176887,66.449099,24.445674,0,Ylitornio,85683147,907/199/549/907199549.geojson,localadmin,85683147,figov,,,FI
"23.77788195782815,66.46542107496228,24.98805198380683,67.01492454597238",uuuu,85633143,,764cc8f45fdb79640c7b944fe3a2f8eb,,f8ddf5a19800fd3a3ac8e42388a746a1,66.778027,24.302412,907199553,uuuu,FI,FI,1481176887,66.777310,24.201748,0,Pello,85683147,907/199/553/907199553.geojson,localadmin,85683147,figov,,,FI
"27.88145162238287,66.4081463859626,30.01704433934021,67.80295921560882",uuuu,85633143,,f37e82377e16287251080b85c66b64a7,,139bbca3480174df3b941599d8e041e6,66.996169,28.908713,907199555,uuuu,FI,FI,1481176887,66.833370,28.730471,0,Salla,85683147,907/199/555/907199555.geojson,localadmin,85683147,figov,,,FI
"23.75359929224046,65.61284639908533,24.79182468184253,66.33223570759817",uuuu,85633143,,6132c581815d59991b563b2a02208ea8,,76d120197feb450365ecf9fc150ecf95,66.025428,24.283616,907199557,uuuu,FI,FI,1481176888,66.035063,24.290673,0,Tornio,85683147,907/199/557/907199557.geojson,localadmin,85683147,figov,,,FI
"25.35001739082343,66.94292424980956,28.64615259922817,68.46619039418151",uuuu,85633143,,532a30d81173810fa6205db5c4852e57,,07350f1db9bbc1d25e77088b57635df4,67.786156,26.912770,907199561,uuuu,FI,FI,1481176888,67.728067,26.613214,0,Sodankyla,85683147,907/199/561/907199561.geojson,localadmin,85683147,figov,,,FI
"24.0932384338637,67.15118860864268,26.00783951989144,68.39528875553565",uuuu,85633143,,d1e4952ec52a4a5a136f3f3ca3dd6cd3,,9914ce284d42254e5b6322473e2e55f8,67.813020,25.052014,907199565,uuuu,FI,FI,1481176888,67.779031,25.051799,0,Kittila,85683147,907/199/565/907199565.geojson,localadmin,85683147,figov,,,FI
"24.90316578175037,68.27757167763336,29.33649555525139,69.84919258366367",uuuu,85633143,,c757c2757ee8b9173c321946b2afa13c,,eeacc8789ed9ab490f82aa5610932c9f,68.939892,27.234707,907199567,uuuu,FI,FI,1481176888,68.895905,27.234585,0,Inari,85683147,907/199/567/907199567.geojson,localadmin,85683147,figov,,,FI
"24.43619073338067,65.69503725290208,25.22671392018725,66.06025025851292",uuuu,85633143,,97c4e4c5ed8494c8d0eb0d3dc8e3c707,,8e8f509d161b27267fe881b4f8f6e45e,65.875816,24.785299,907199569,uuuu,FI,FI,1481176889,65.848469,24.779916,0,Keminmaa,85683147,907/199/569/907199569.geojson,localadmin,85683147,figov,,,FI
"26.51797357001875,66.88590984670012,28.35948167909116,67.4253208178153",uuuu,85633143,,e63590ef319fcf5495a5cb4fd422d079,,db71a28779ca07b04ca9d8e17bde6f08,67.142586,27.467406,907199571,uuuu,FI,FI,1481176889,67.191708,27.453248,0,Pelkosenniemi,85683147,907/199/571/907199571.geojson,localadmin,85683147,figov,,,FI
"25.69274210867519,69.14758010041828,28.34526956479037,70.09229321300727",uuuu,85633143,,8043e1ead42e5f90f54f3e6a16bf0e33,,f98adbf5f54e45167e085627afb3c45d,69.659525,26.959449,907199575,uuuu,FI,FI,1481176889,69.655883,26.758904,0,Utsjoki,85683147,907/199/575/907199575.geojson,localadmin,85683147,figov,,,FI
"27.22208026291043,67.1081063508204,29.65940524670327,68.19630355239953",uuuu,85633143,,083e866f86f606531dc9441281940569,,c096615aa22c1ccff966e296a37a3a67,67.634346,28.531483,907199579,uuuu,FI,FI,1481176889,67.633176,28.550041,0,Savukoski,85683147,907/199/579/907199579.geojson,localadmin,85683147,figov,,,FI
"23.54011010140237,66.93790705847101,24.87025893039144,67.63881894697963",uuuu,85633143,,b24b1db26aed8d2996fb505913808e18,,5764ae173f3926a6fbeaf7ce8adf02ac,67.250858,24.149802,907199583,uuuu,FI,FI,1481176889,67.321534,24.084667,0,Kolari,85683147,907/199/583/907199583.geojson,localadmin,85683147,figov,,,FI
"23.28675974614407,67.44598643345567,24.30149389900695,68.18729499761643",uuuu,85633143,,766b4c0fa61af04d176fb9b6e334851a,,9f46c2e9362f9a8d881d4f18d50c2549,67.855476,23.803785,907199587,uuuu,FI,FI,1481176889,67.843382,23.896102,0,Muonio,85683147,907/199/587/907199587.geojson,localadmin,85683147,figov,,,FI
"24.73684915241403,66.1553988751441,27.32664974950479,67.1797682760886",uuuu,85633143,,5af155e841731636f47a6f1d65bcd6e4,,7c79ed4501c4ccd4475d1cf23b9206ff,66.638155,25.840236,907199591,uuuu,FI,FI,1481176889,66.662643,25.840336,0,Rovaniemi,85683147,907/199/591/907199591.geojson,localadmin,85683147,figov,,,FI
"24.1327528329098,65.33728760593527,24.75349010490165,65.8074182681216",uuuu,85633143,,9adb59948b0b8810136161e904817ccf,,c715e58c811b2decf3df4d338ae429fa,65.585633,24.394198,907199597,uuuu,FI,FI,1481176889,65.585615,24.394116,0,Kemi,85683147,907/199/597/907199597.geojson,localadmin,85683147,figov,,,FI
"20.54863640201961,68.11596472336727,25.0271957214621,69.31188414447172",uuuu,85633143,,d85d55703bf003b42b49254a02e0c226,,857c69114c452a8e40a767336e06f0b4,68.651503,22.870984,907199599,uuuu,FI,FI,1481176889,68.436211,23.463279,0,Enontekio,85683147,907/199/599/907199599.geojson,localadmin,85683147,figov,,,FI
"24.60561580090429,60.64749642339941,24.84473299316493,60.80031141638478",uuuu,85633143,,83f440c3f52f4795a8f1bf0929545e6b,,637fec2cd65b26ac7fe4526dc05319bc,60.711642,24.740064,907199603,uuuu,FI,FI,1481176890,60.708205,24.738244,0,Riihimaki,85683077,907/199/603/907199603.geojson,localadmin,85683077,figov,,,FI
"29.46728675136841,62.99840252998228,31.24084578255481,63.75716532802076",uuuu,85633143,,43195e090e4d2c2170e0620cabbc618a,,e4d2f881da5dc39b12d93c30912af7ea,63.335522,30.187315,907199605,uuuu,FI,FI,1481176890,63.388035,29.952603,0,Lieksa,85683133,907/199/605/907199605.geojson,localadmin,85683133,figov,,,FI
"29.61309212920366,62.25080294540513,31.09352161631278,63.04758543825813",uuuu,85633143,,754d7cb46c8801f37dadf52c6b8b6816,,101c66e0cde4bbd823954c465a77d0ed,62.612871,30.327143,907199609,uuuu,FI,FI,1481176890,62.529746,30.439234,0,Joensuu,85683133,907/199/609/907199609.geojson,localadmin,85683133,figov,,,FI
"25.50105342286616,64.56274402995157,26.12948986348337,64.9044554800096",uuuu,85633143,,c24f0a545c1a0653b6689c7eb9efa4d7,,a8aa12129382f4f5bb7ef44d372d1c34,64.724650,25.767366,907199615,uuuu,FI,FI,1481176890,64.754225,25.710628,0,Tyrnava,85683143,907/199/615/907199615.geojson,localadmin,85683143,figov,,,FI
"22.77889674914379,63.96497948641503,24.34606660161836,64.48346071824793",uuuu,85633143,,ee1b6b23df7f871dea39f9632a1194c1,,508e84fca2d4a367332d60afa44f6de3,64.236997,23.613852,907199617,uuuu,FI,FI,1481176891,64.233736,23.625261,0,Kalajoki,85683143,907/199/617/907199617.geojson,localadmin,85683143,figov,,,FI
"26.29110595435436,64.25818916860992,27.39697819598903,64.83528737661618",uuuu,85633143,,d393eb339d3ba38810a4beeaaa932b0e,,02e164760c4f9bfe0d655dd119b7f9b3,64.514741,26.895924,907199621,uuuu,FI,FI,1481176891,64.504158,26.895849,0,Vaala,85683143,907/199/621/907199621.geojson,localadmin,85683143,figov,,,FI
"22.51060116675146,61.73638991218264,22.82842184150259,61.95210751395097",uuuu,85633143,,d9797eb51c00cb8cd8c3dd5a813a32fa,,a3bcf0a182a8bef00830500a4cbcc65f,61.841094,22.672054,907199625,uuuu,FI,FI,1481176891,61.846398,22.661179,0,Jamijarvi,85683095,907/199/625/907199625.geojson,localadmin,85683095,figov,,,FI
"24.63785560749042,63.75210031551231,25.3662253493885,64.06793827893823",uuuu,85633143,,b7da50247c122953bb158b91cf5f0a93,,309d14a2a24f224da050a82b018d3a2b,63.926045,25.024678,907199629,uuuu,FI,FI,1481176891,63.942366,25.026199,0,Nivala,85683143,907/199/629/907199629.geojson,localadmin,85683143,figov,,,FI
"24.67528761776222,60.20256264795371,24.75091364361262,60.2259132354027",uuuu,85633143,,4197a378021db174e65141a31a58379d,,3234830c5cf3aedaaab772e1f662195d,60.214556,24.713574,907199633,uuuu,FI,FI,1481176891,60.217471,24.713010,0,Kauniainen,85683067,907/199/633/907199633.geojson,localadmin,85683067,figov,,,FI
"25.16841388491236,64.46268228441325,26.29110595435436,64.89238902463214",uuuu,85633143,,5d8886974dc0f67aa6ba6b17f0100ff7,,3a56912272dc64101bdaa69891c50aa1,64.673030,25.653079,907199635,uuuu,FI,FI,1481176891,64.767250,25.412398,0,Liminka,85683143,907/199/635/907199635.geojson,localadmin,85683143,figov,,,FI
"24.95566270690943,63.58148010237854,25.66730632299521,63.944765680722",uuuu,85633143,,a0d2eb44740d627523bdf6784a1ea588,,b72b713e392e10f61868eb88be9605e0,63.773308,25.377723,907199639,uuuu,FI,FI,1481176892,63.773635,25.402072,0,Haapajarvi,85683143,907/199/639/907199639.geojson,localadmin,85683143,figov,,,FI
"20.8296252015634,61.28883995235532,21.80462750550191,61.53017855340213",uuuu,85633143,,6c9963e78760063a3963916f7de695dc,,efded31cbfb2809516aed89624ea144d,61.407536,21.263554,907199643,uuuu,FI,FI,1481176892,61.416909,21.263522,0,Luvia,85683095,907/199/643/907199643.geojson,localadmin,85683095,figov,,,FI
"22.92542951102546,60.57116448846727,23.25769556878213,60.77416824648042",uuuu,85633143,,2ea1263ab9e3f31470a5d16141c499d7,,3cb27f2380462c3d9b39ec0f3840f622,60.661824,23.126006,907199647,uuuu,FI,FI,1481176892,60.663834,23.137278,0,Koski Tl,85683073,907/199/647/907199647.geojson,localadmin,85683073,figov,,,FI
"24.7462358484168,60.23721755282899,25.19306829026028,60.40125485445441",uuuu,85633143,,2fb99a82c03c862c15c9e0224ab051d9,,5474a0a90209d0c23809b4cb318390a5,60.313279,24.950674,907199651,uuuu,FI,FI,1481176892,60.326654,24.854159,0,Vantaa,85683067,907/199/651/907199651.geojson,localadmin,85683067,figov,,,FI
"20.87456812967416,61.38402403271774,22.72492994766555,61.74967793065363",uuuu,85633143,,567a08f7b94aff12a39ff92e6472d444,,445f6b418ebe990525775b2967cfddee,61.597413,21.705662,907199653,uuuu,FI,FI,1481176892,61.583560,21.643094,0,Pori,85683095,907/199/653/907199653.geojson,localadmin,85683095,figov,,,FI
"23.14004864040096,64.2996844967175,24.88917519575952,64.62873731448074",uuuu,85633143,,876db7b16ede9646ea1bf6cb98e33e53,,fe3ebb51aec9fd9826899789dee67ba7,64.468940,24.018933,907199655,uuuu,FI,FI,1481176892,64.467351,24.032494,0,Pyhajoki,85683143,907/199/655/907199655.geojson,localadmin,85683143,figov,,,FI
"20.28432563503769,59.45414401851779,21.34564506300184,60.103968091329314",uuuu,0,,b1698ab11a56b5f9d0a5ecfe82fb04b4,,6cd55715fa2fd7c825ee433e39047d62,59.742582,20.899207,907199659,uuuu,FI,FI,1470852388,59.740966,20.935393,0,Kokar,-1,907/199/659/907199659.geojson,localadmin,0,,,,FI
"20.46603428107938,62.20378240657548,21.7909676740613,62.76766595842277",uuuu,85633143,,469edef9b84b0df6555c74475309a767,,070f4030f8c6b0ab096c019b9a0b0ced,62.512640,21.105877,907199661,uuuu,FI,FI,1481176893,62.505653,21.061080,0,Narpio,85683119,907/199/661/907199661.geojson,localadmin,85683119,figov,,,FI
"21.51157720010864,62.36189663017599,22.11137540323876,62.64324665314672",uuuu,85633143,,500d09792c06de033702f15c899274ac,,5c19b14b092c346b26ad9385a52b754f,62.506141,21.800572,907199665,uuuu,FI,FI,1481176893,62.485479,21.800746,0,Teuva,85683113,907/199/665/907199665.geojson,localadmin,85683113,figov,,,FI
"22.82967685589881,63.38032068320174,23.83597464212926,63.79171025378636",uuuu,85633143,,eb2c965bea61c73c073272f702b9bc33,,efc6f34ce64163d193fc9bfc7a777d6b,63.640860,23.348830,907199669,uuuu,FI,FI,1481176893,63.654993,23.316930,0,Kruunupyy,85683119,907/199/669/907199669.geojson,localadmin,85683119,figov,,,FI
"26.89012775899935,62.59226364882685,28.45793874790439,63.40331072600311",uuuu,85633143,,31d8a81f2b5efa9315740f1ca680070b,,9c50e3cc66237365944c5e874a2ccbda,62.975256,27.685645,907199673,uuuu,FI,FI,1481176893,62.827534,27.673699,0,Kuopio,85683131,907/199/673/907199673.geojson,localadmin,85683131,figov,,,FI
"20.106112997534638,60.10749061869277,20.987657757603355,60.80256944533601",uuuu,0,,236aaf83bc3ea5efd3f4d596cdf6856e,,b7984ef3be92b228fa10afacb7e176dd,60.404763,20.628523,907199697,uuuu,FI,FI,1470852401,60.265756,20.768202,0,Kumlinge,-1,907/199/697/907199697.geojson,localadmin,0,,,,FI
"24.13748910167998,65.21149259954777,26.16011079503476,65.82233496737192",uuuu,85633143,,fa22814d5fa024987aba50fdc561507c,,4970aeccccfb6a2347edaecccc1e925f,65.472972,25.304240,907199699,uuuu,FI,FI,1481176895,65.473523,25.306099,0,Ii,85683143,907/199/699/907199699.geojson,localadmin,85683143,figov,,,FI
"23.94340015645806,64.32602381353605,25.61258041072953,65.00794734739192",uuuu,85633143,,78f9cb0538110bedc17b7340f00663f1,,9bff08ed02e350279103f4d0a2720c2e,64.743188,24.804053,907199705,uuuu,FI,FI,1481176895,64.666090,25.011604,0,Siikajoki,85683143,907/199/705/907199705.geojson,localadmin,85683143,figov,,,FI
"27.7346367392497,62.14100789806344,28.65889063275837,62.38050635297575",uuuu,85633143,,38cd0c4d25eeab2a8895512de928026b,,4ba38974341e470194f6adf4f912b8c0,62.278972,28.244053,907199707,uuuu,FI,FI,1481176895,62.290494,28.251020,0,Varkaus,85683131,907/199/707/907199707.geojson,localadmin,85683131,figov,,,FI
"24.78280554778367,59.92249323793387,25.25449666901752,60.29783940886405",uuuu,85633143,,c25505d5973cd9512c62d2276a23a2bc,,8b23ff15d9f0131a5bb9b94b9dc0df41,60.113924,25.017104,907199715,uuuu,FI,FI,1481176896,60.094890,25.012523,0,Helsinki,85683067,907/199/715/907199715.geojson,localadmin,85683067,figov,,,FI
"26.92213641296876,60.22940613383219,27.64953234746196,60.84264003741158",uuuu,85633143,,184d5ce6659721839cc0b058ef0bf19b,,b2a2f5393ffedd11558664306e299baf,60.539376,27.290057,907199723,uuuu,FI,FI,1481176896,60.567852,27.204643,0,Hamina,85683081,907/199/723/907199723.geojson,localadmin,85683081,figov,,,FI
"19.913107637530675,60.04666546792644,19.97328592884015,60.12898638077966",uuuu,85633143,,57a52dc72064100839167b284c954979,,a78e40f780b84952dc8d45caf8279e57,60.087881,19.942511,907199729,uuuu,FI,FI,1470852409,60.086164,19.945460,0,Maarianhamina,85667871,907/199/729/907199729.geojson,localadmin,85667871,,,,FI
"23.49320011425953,61.05735515180876,23.95859580501052,61.25897918229806",uuuu,85633143,,84069e37437e9bfca713dbfc3de99bf6,,e3c44d7df8f763a3f56b55399a55b25c,61.153978,23.747391,907199731,uuuu,FI,FI,1481176896,61.150068,23.743948,0,Akaa,85683099,907/199/731/907199731.geojson,localadmin,85683099,figov,,,FI
"21.98894463329171,59.50107673249489,22.92041971142617,60.26497879749464",uuuu,85633143,,49d4d15747f1cd77bbba3c49f5e6c61d,,41c6c06c504173818eadea7d5d8b20b7,59.875395,22.449582,907199735,uuuu,FI,FI,1481176896,59.865044,22.458414,0,Kemionsaari,85683073,907/199/735/907199735.geojson,localadmin,85683073,figov,,,FI
"21.02382996364548,59.47564293881607,22.54299911864057,60.49866215961113",uuuu,85633143,,37558b300e14b674bf7f0ab4843d0b96,,2f6dbc81cbfc5249bf5468ea5d44f67c,59.981748,21.666103,907199741,uuuu,FI,FI,1481176896,59.962758,21.665922,0,Parainen,85683073,907/199/741/907199741.geojson,localadmin,85683073,figov,,,FI
"24.03551018200763,61.90605898173678,24.73091347612383,62.26031154355832",uuuu,85633143,,687c3cb062a7c7a3c873c42bae8669f8,,6f54790a20e2e00c47f86b772347a561,62.082929,24.403815,907199743,uuuu,FI,FI,1481176896,62.038070,24.466972,0,Mantta-Vilppula,85683099,907/199/743/907199743.geojson,localadmin,85683099,figov,,,FI
"22.78833577881969,59.65118864806646,23.98637722966237,60.2060012571451",uuuu,85633143,,993bd80f418db5091af8c252a33e191b,,4aac2f661dc451019caab6ead057aa23,59.938017,23.450877,907199747,uuuu,FI,FI,1481176897,59.933931,23.509855,0,Raasepori,85683067,907/199/747/907199747.geojson,localadmin,85683067,figov,,,FI
"22.43416013212207,61.18252905547876,23.28733098994768,61.72383923064509",uuuu,85633143,,d7716f602504124fd1051a2e3b8c8647,,500e9501ca84768f5dd67808f919f640,61.415668,22.886255,907199751,uuuu,FI,FI,1481176897,61.415682,22.886506,0,Sastamala,85683099,907/199/751/907199751.geojson,localadmin,85683099,figov,,,FI
"25.37954798967243,63.96468118938511,26.77087094547037,64.62894252074423",uuuu,85633143,,c9a68dd59f77a833af15952b94091d5c,,47dfb8b757a5cbfea2379ae1e2b8ae32,64.328131,25.974342,907199755,uuuu,FI,FI,1481176897,64.309473,25.962486,0,Siikalatva,85683143,907/199/755/907199755.geojson,localadmin,85683143,figov,,,FI
"21.36058675970697,63.05611353468176,22.65820208651854,63.67023225890499",uuuu,85633143,,a85371bd520f51961ec69e4cc91e93f8,,66e175e5debb88d1432fe8937b90ce4c,63.331706,22.075703,907199763,uuuu,FI,FI,1481176897,63.232623,22.193719,0,Voyri,85683119,907/199/763/907199763.geojson,localadmin,85683119,figov,,,FI
