bbox,cessation,country_id,deprecated,file_hash,fullname,geom_hash,geom_latitude,geom_longitude,id,inception,iso,iso_country,lastmodified,lbl_latitude,lbl_longitude,locality_id,name,parent_id,path,placetype,region_id,source,superseded_by,supersedes,wof_country
"20.4816875433,59.9097878449,21.063007025,60.226263223",uuuu,0,,3ee58accd611ca30a00eba7833947776,,0789caa64e9e2767dc8fa206bc40b489,60.090752,20.753145,907198465,uuuu,FI,FI,1470851982,60.065472,20.728697,0,Sottunga,-1,907/198/465/907198465.geojson,localadmin,0,,,,FI
"25.8010023716,60.0446972153,26.6563967257,60.6613579613",uuuu,85633143,,33d15242e98995a70f6640311bcc5579,,5f7501b54383616080dac064be30854c,60.36659,26.240885,907198469,uuuu,FI,FI,1470851983,60.313799,26.28288,0,Loviisa,85683067,907/198/469/907198469.geojson,localadmin,85683067,,,,FI
"19.1611733816,60.0248726416,19.682896399,60.6115120407",uuuu,0,,5ca42ac686b6c091ce91c04188f8ac2d,,8341275d8db2455fa994e4ab9369550d,60.299116,19.425151,907198473,uuuu,FI,FI,1470851983,60.247127,19.537342,0,Eckero,-1,907/198/473/907198473.geojson,localadmin,0,,,,FI
"19.0832000706,59.956410432,19.8493249404,60.6657874028",uuuu,0,,f7aebeb4ba8f7aacdaf0bbe09f2ba15d,,6f97a66e09701420ba3c07d7c4b9e18d,60.310949,19.446326,907198477,uuuu,FI,FI,1470851984,60.539796,19.438309,0,Hammarland,-1,907/198/477/907198477.geojson,localadmin,0,,,,FI
"19.6582833656,59.5950638813,20.2579423695,60.1432394528",uuuu,0,,af29305d86ef1765bd61519360b6d762,,975ae7d8dcd71ef7eb0deb551fff5460,59.8799,19.965467,907198483,uuuu,FI,FI,1470851985,59.849754,19.936087,0,Lemland,-1,907/198/483/907198483.geojson,localadmin,0,,,,FI
"19.9406472182,59.4660859578,20.7716241338,60.1510705583",uuuu,0,,fb664ab794609fef49ce7d7d6d14661a,,f340dcde5708700c0fed31c6a57acbc3,59.818001,20.364907,907198485,uuuu,FI,FI,1470851985,59.836703,20.39333,0,Foglo,-1,907/198/485/907198485.geojson,localadmin,0,,,,FI
"19.4236450757,59.7916833234,20.1334775805,60.2107491798",uuuu,0,,72e1be303875ce7220e02a1320064258,,e9a7352fe74d8f5e81b9a474331f5a7c,60.017397,19.742662,907198489,uuuu,FI,FI,1470851986,60.004472,19.718401,0,Jomala,-1,907/198/489/907198489.geojson,localadmin,0,,,,FI
"20.1334775805,60.0415995082,20.3405495486,60.1766972335",uuuu,0,,5ff0433b3b95e12cbd3c12a03b41bf9f,,d571a054f6db484c7f9ab5500e1ee3da,60.116576,20.241492,907198491,uuuu,FI,FI,1470851987,60.125152,20.243063,0,Lumparland,-1,907/198/491/907198491.geojson,localadmin,0,,,,FI
"20.2190518698,60.1008892534,20.6357631394,60.4664807299",uuuu,0,,cd6ce98330b5732da2f0adcff8a45f24,,a8fb17f30422032fb6ad4acc46a30d80,60.293957,20.421869,907198495,uuuu,FI,FI,1470851987,60.289587,20.436377,0,Vardo,-1,907/198/495/907198495.geojson,localadmin,0,,,,FI
"20.0175922087,60.1432394528,20.3298246381,60.3410564197",uuuu,85633143,,907322106cdaeaf94fc5abdeb3f133a8,,7a54623bda210de9bf94fed5b64c6d4f,60.231102,20.169455,907198499,uuuu,FI,FI,1470851988,60.221055,20.167796,0,Sund,85667867,907/198/499/907198499.geojson,localadmin,85667867,,,,FI
"19.4732471109,60.3084317601,19.9942144415,60.7083439876",uuuu,0,,63afa2867c9130ffbb304d3fff02852c,,93ba44de186082b3a01e83d85e3ee691,60.525079,19.737276,907198503,uuuu,FI,FI,1470851988,60.562004,19.719845,0,Geta,-1,907/198/503/907198503.geojson,localadmin,0,,,,FI
"22.6589236383,59.6109994387,23.2951677695,59.9371668289",uuuu,85633143,,ae2e127d151e1d5888ce93f4438d952f,,db42b75842d4fdecf4648f5ed1aefa55,59.765962,22.999336,907198505,uuuu,FI,FI,1470851988,59.76547,23.005417,0,Hanko,85683067,907/198/505/907198505.geojson,localadmin,85683067,,,,FI
"23.7526574844,59.7516960272,24.3162836407,60.1501172399",uuuu,85633143,,78aa266147fda46e40a4a3e611102208,,7007e8b5a9fd546e6e696bf5e67b6935,59.960416,24.05499,907198509,uuuu,FI,FI,1470851989,59.955146,24.049604,0,Inkoo,85683067,907/198/509/907198509.geojson,localadmin,85683067,,,,FI
"24.2720653814,59.7915698748,24.8314125209,60.2977067973",uuuu,85633143,,94c1b8ef2c21458a6e1d0b52b6ae0411,,09ea035bed1ef9e594d4645d26b4abb1,60.011268,24.495889,907198511,uuuu,FI,FI,1470851990,59.987781,24.500165,0,Kirkkonummi,85683067,907/198/511/907198511.geojson,localadmin,85683067,,,,FI
"24.4993021356,59.9014047844,24.9422998416,60.3639007023",uuuu,85633143,,414f9136c0c823133673cd31f39418f4,,f6e3e0aeb163aebefb5bfae55ee18692,60.164108,24.713587,907198517,uuuu,FI,FI,1470851991,60.135897,24.716896,0,Espoo,85683067,907/198/517/907198517.geojson,localadmin,85683067,,,,FI
"25.102188639,59.9370983061,25.5269179793,60.5062338474",uuuu,85633143,,fa54921a45762bd3e0fe792fb31cd8b1,,a688e08b14edd66a4ed601190885ab33,60.22465,25.286064,907198521,uuuu,FI,FI,1470851992,60.250776,25.342228,0,Sipoo,85683067,907/198/521/907198521.geojson,localadmin,85683067,,,,FI
"25.3292884701,59.9281958493,26.271297587,60.550997512",uuuu,85633143,,30e01043513ac807141650fda95635bf,,92fdb21be5a8f7dfcbf2dfafa407b7a7,60.185899,25.727853,907198525,uuuu,FI,FI,1470851993,60.163154,25.7275,0,Porvoo,85683067,907/198/525/907198525.geojson,localadmin,85683067,,,,FI
"19.7417459608,60.1805204001,20.0267853017,60.4509136733",uuuu,85633143,,6033cc58b48ae08826c7d924f3e997be,,be5aeb8dae7198e93d48cd5993c1cdb2,60.270384,19.902272,907198529,uuuu,FI,FI,1470851994,60.259693,19.886349,0,Finstrom,85667835,907/198/529/907198529.geojson,localadmin,85667835,,,,FI
"19.7978546389,60.2298915798,20.5640371886,60.7620023568",uuuu,0,,5ec3153fd2b4929f6f841769b5991df9,,a6dcef00e8be5e6333950aa585b86f41,60.521499,20.099652,907198535,uuuu,FI,FI,1470851994,60.563327,20.09563,0,Saltvik,-1,907/198/535/907198535.geojson,localadmin,0,,,,FI
"23.97132673,60.4703991717,24.4649044693,60.6445215747",uuuu,85633143,,8b07dc0e3a125db6cf15127ed3eba86b,,a92d39c295da38b4d7b030476642b813,60.556943,24.238146,907198539,uuuu,FI,FI,1470851995,60.554938,24.196961,0,Karkkila,85683067,907/198/539/907198539.geojson,localadmin,85683067,,,,FI
"25.4142722292,60.4699110953,25.8232270824,60.6141335279",uuuu,85633143,,a92f5d0f9174fae9bacc001114e591a7,,67e79444554fa19ea2beb10584c08d44,60.542451,25.61421,907198543,uuuu,FI,FI,1470851996,60.541697,25.618151,0,Askola,85683067,907/198/543/907198543.geojson,localadmin,85683067,,,,FI
"25.204082063,60.4007405216,25.5101962474,60.5543004939",uuuu,85633143,,90ed73309aa5f694d3ae0e26cf099ff0,,41adf710871daa798f35c64dd9ca2060,60.482344,25.359441,907198545,uuuu,FI,FI,1470851997,60.484602,25.36981,0,Pornainen,85683067,907/198/545/907198545.geojson,localadmin,85683067,,,,FI
"23.1546153688,60.4673262878,23.9205491095,60.7741682465",uuuu,85633143,,2264f61f72635cda9a8a5fde35f1ccde,,e70b464b14276dbcad7bdc85471fd57e,60.61445,23.555172,907198549,uuuu,FI,FI,1470851998,60.591081,23.613235,0,Somero,85683073,907/198/549/907198549.geojson,localadmin,85683073,,,,FI
"20.2018034418,60.1239329303,21.1513411135,60.8766366924",uuuu,0,,069b5381018bcbedf14d7bca1ec64620,,909712dafb0042689b12e0e08bccfbcb,60.556446,20.770643,907198555,uuuu,FI,FI,1470851998,60.556615,20.896459,0,Brando,-1,907/198/555/907198555.geojson,localadmin,0,,,,FI
"25.0453432655,60.5016310838,25.5254231513,60.8408511915",uuuu,85633143,,ba4cc29d2c6c3550f6c7d11fde26610e,,39d0c68ea3bc0ecaab1fb30abcfd7e4e,60.661042,25.279125,907198557,uuuu,FI,FI,1470851999,60.649391,25.298499,0,Mantsala,85683067,907/198/557/907198557.geojson,localadmin,85683067,,,,FI
"24.7133101254,60.6593013884,25.1930665884,60.9278385965",uuuu,85633143,,63448f921dc9575c5e9ab91805f9f789,,ea7f5ac605b04f6a6d258eeef6bb4883,60.782189,24.960681,907198561,uuuu,FI,FI,1470852000,60.765918,24.977088,0,Hausjarvi,85683077,907/198/561/907198561.geojson,localadmin,85683077,,,,FI
"25.0785719292,60.7519551589,25.4496067445,60.9816768585",uuuu,85633143,,099523aa30192e67693aff99b0adfb53,,8a0994d130f54fb63fab8839836eb657,60.857873,25.268141,907198567,uuuu,FI,FI,1470852002,60.855295,25.270952,0,Karkola,85683091,907/198/567/907198567.geojson,localadmin,85683091,,,,FI
"24.0467482465,60.5524914803,24.6909498293,60.8203496103",uuuu,85633143,,b11943226b31149dc2c8f16ce7e7824d,,579ccdb0d66a2db8cf4bd200759998ea,60.691121,24.338978,907198573,uuuu,FI,FI,1470852002,60.691361,24.300778,0,Loppi,85683077,907/198/573/907198573.geojson,localadmin,85683077,,,,FI
"25.3949950121,60.6714762655,26.2238442572,60.9345586578",uuuu,85633143,,05375a18f097183ef222603e963102c5,,f0ccf484e38fca97fe2acccc7f19ca9e,60.800278,25.821406,907198577,uuuu,FI,FI,1470852004,60.801453,25.788066,0,Orimattila,85683091,907/198/577/907198577.geojson,localadmin,85683091,,,,FI
"23.4983066944,60.6376627449,24.0632433773,60.9739891896",uuuu,85633143,,3839b610c3aeeb358b4b40d1cf4ea4e5,,84098ab63854a606e158a4bcfd1c9037,60.785844,23.832405,907198581,uuuu,FI,FI,1470852005,60.796421,23.837799,0,Tammela,85683077,907/198/581/907198581.geojson,localadmin,85683077,,,,FI
"25.0075357612,60.8543589049,25.8221945308,61.1507073194",uuuu,85633143,,207d0ca1e99e96ee07e60359b8b7c69e,,408b68a7756295e3f6b98921192fb5ab,61.006743,25.389559,907198585,uuuu,FI,FI,1470852008,60.98896,25.423575,0,Hollola,85683091,907/198/585/907198585.geojson,localadmin,85683091,,,,FI
"24.1254914142,60.2461982126,24.6495309473,60.5858011888",uuuu,85633143,,33b588b72ef9c8b109fcd84eed6e4203,,297470a04705a7dfd2ac57ab2d9c949d,60.408445,24.396762,907198595,uuuu,FI,FI,1470852009,60.395098,24.418376,0,Vihti,85683067,907/198/595/907198595.geojson,localadmin,85683067,,,,FI
"24.5248386769,60.3417833636,24.9754575197,60.5888669187",uuuu,85633143,,24cbb89f04510260ecabe23419079999,,dde44239c53626b70a59a52b78b4fdb5,60.461864,24.756265,907198599,uuuu,FI,FI,1470852011,60.445065,24.752867,0,Nurmijarvi,85683067,907/198/599/907198599.geojson,localadmin,85683067,,,,FI
"24.5629361862,60.5081276193,25.1124618017,60.684992121",uuuu,85633143,,244accc55d4070450c710f5f6d4d24ca,,73fadf65be6384f3f5e70680959266b8,60.609007,24.820403,907198603,uuuu,FI,FI,1470852012,60.612482,24.839081,0,Hyvinkaa,85683067,907/198/603/907198603.geojson,localadmin,85683067,,,,FI
"25.904959057,60.4996028165,26.3802015907,60.7623454028",uuuu,85633143,,2e46769da5a396fd17398bed4ca07625,,562a71e507127aea96f220f385b1cc6e,60.637137,26.1985,907198607,uuuu,FI,FI,1470852013,60.643813,26.257862,0,Lapinjarvi,85683067,907/198/607/907198607.geojson,localadmin,85683067,,,,FI
"20.3775434328,60.4306845727,21.5437369425,60.9018072212",uuuu,85633143,,66962ff42ab309113aadd02e8d5e1d7f,,b70de85d23560cb4c8e35f4a09c8241f,60.66071,21.064942,907198611,uuuu,FI,FI,1470852013,60.582769,21.260226,0,Kustavi,85683073,907/198/611/907198611.geojson,localadmin,85683073,,,,FI
"20.4375714384,60.6167483372,21.7582826031,61.126905931",uuuu,85633143,,31c858fc67d897a53a100c47c0b82b31,,30bb124d64b9a6b5f0005deda829f604,60.882614,21.097273,907198615,uuuu,FI,FI,1470852015,60.902973,21.10691,0,Uusikaupunki,85683073,907/198/615/907198615.geojson,localadmin,85683073,,,,FI
"25.9919257035,60.7478438756,26.5449681031,61.155485463",uuuu,85633143,,9d86a4edf5657ee64a82753b862d126c,,6d3ee7621e63f7cd2e90bc00d1085266,60.935874,26.28021,907198619,uuuu,FI,FI,1470852016,60.895079,26.277185,0,Iitti,85683081,907/198/619/907198619.geojson,localadmin,85683081,,,,FI
"25.0729006244,60.3590742471,25.1635893012,60.4429878069",uuuu,85633143,,63ba4e2abf8dd5c92e136205120c8101,,afa33a309c940f2389538277053aefa0,60.399277,25.118714,907198627,uuuu,FI,FI,1470852018,60.398886,25.115053,0,Kerava,85683067,907/198/627/907198627.geojson,localadmin,85683067,,,,FI
"24.8661902737,60.3324491467,25.1535081244,60.5806395788",uuuu,85633143,,a455c827a0fce4e1b083242318c9f874,,d3cc5511b365b14a2cc3f66ef0b87ad7,60.451974,25.002058,907198631,uuuu,FI,FI,1470852019,60.423853,24.990165,0,Tuusula,85683067,907/198/631/907198631.geojson,localadmin,85683067,,,,FI
"21.3656174486,60.4664106811,21.7830764666,60.6405905112",uuuu,85633143,,652c6aebadda3da15aa41fbe030899b8,,e473f54d277bfbd95d84f1de83c624c5,60.559079,21.584791,907198635,uuuu,FI,FI,1470852020,60.543959,21.584793,0,Taivassalo,85683073,907/198/635/907198635.geojson,localadmin,85683073,,,,FI
"25.0385338914,60.4429087175,25.1693004514,60.5167309519",uuuu,85633143,,213bd2f9a4f0fb0f925f94299caa4da4,,17c065918731e71f0c299eb70e4a8621,60.48051,25.100428,907198639,uuuu,FI,FI,1470852021,60.474412,25.095144,0,Jarvenpaa,85683067,907/198/639/907198639.geojson,localadmin,85683067,,,,FI
"21.5060044564,60.5712574848,21.8153738309,60.7592913476",uuuu,85633143,,c5ca155e64b800e6c20cc676072a0cdf,,727b6993b2f27136f637c67a5da99459,60.673933,21.683475,907198643,uuuu,FI,FI,1470852021,60.679719,21.683425,0,Vehmaa,85683073,907/198/643/907198643.geojson,localadmin,85683073,,,,FI
"25.5403067224,60.8866488315,26.1689823974,61.1026662834",uuuu,85633143,,ae820e97c61f786a1abdbfecd02e06bc,,8760f7bc7f9dd1c51911ffed3da3ba15,60.9898,25.864621,907198647,uuuu,FI,FI,1470852022,60.988992,25.889871,0,Lahti,85683091,907/198/647/907198647.geojson,localadmin,85683091,,,,FI
"26.4478395201,60.1713286325,26.8753364588,60.652367518",uuuu,85633143,,bb1dd43b734a06ed1c875106a3bfd59a,,2d7780b884962ce9b4158a17e06899fb,60.408043,26.68235,907198651,uuuu,FI,FI,1470852023,60.418391,26.699637,0,Pyhtaa,85683081,907/198/651/907198651.geojson,localadmin,85683081,,,,FI
"23.5863109041,60.129492556,24.3056956351,60.6538463308",uuuu,85633143,,6c2e088d8b25f6b748f1a2db836e39cf,,ecdbbe536fa16305b60c00dd3e17849e,60.360513,23.943999,907198655,uuuu,FI,FI,1470852025,60.35341,23.949417,0,Lohja,85683067,907/198/655/907198655.geojson,localadmin,85683067,,,,FI
"25.4252885897,60.5798598972,25.7467504798,60.7184210893",uuuu,85633143,,0ba377ac2569fea3ad362f5a0854fbf7,,f73dc2e3d1998786228cf2d8c3744493,60.652631,25.582815,907198663,uuuu,FI,FI,1470852026,60.649162,25.513515,0,Pukkila,85683067,907/198/663/907198663.geojson,localadmin,85683067,,,,FI
"20.7731388539,60.9963322265,22.0707153429,61.2848720274",uuuu,85633143,,e0e8f7e740cae40b5259fa660283f7ea,,f061fa1c59c0cfa9ad2875ac578790f7,61.141909,21.3764,907198665,uuuu,FI,FI,1470852026,61.158301,21.38616,0,Rauma,85683095,907/198/665/907198665.geojson,localadmin,85683095,,,,FI
"20.8120814968,61.1381352141,21.9459419575,61.352649806",uuuu,85633143,,4c73955da9adf6b91448e4b050e2452f,,0a9fb3efde50c3277eda895ec5e35752,61.260836,21.470857,907198669,uuuu,FI,FI,1470852027,61.217691,21.715519,0,Eurajoki,85683095,907/198/669/907198669.geojson,localadmin,85683095,,,,FI
"21.4809147797,60.7384624874,22.1284673345,61.0341822643",uuuu,85633143,,db809089d42cb9d70a6ca1427583cd5a,,4ce133c31eb1d260d7ed458d487725c1,60.894397,21.773859,907198671,uuuu,FI,FI,1470852028,60.901338,21.795965,0,Laitila,85683073,907/198/671/907198671.geojson,localadmin,85683073,,,,FI
"20.771455478,60.8708781471,21.6661380697,61.1334795868",uuuu,85633143,,78a812ce0716fbfec11aa9bebf362412,,8cb05322db35142543793729c9deccb2,61.029516,21.323215,907198675,uuuu,FI,FI,1470852028,61.054585,21.31654,0,Pyharanta,85683073,907/198/675/907198675.geojson,localadmin,85683073,,,,FI
"25.6596491478,60.5487405276,26.0147786155,60.735870732",uuuu,85633143,,ed975a12855aff348b237419ab086db0,,0c162a9fd46d6da6b1ed97c1553be2df,60.642082,25.842071,907198681,uuuu,FI,FI,1470852029,60.640889,25.839379,0,Myrskyla,85683067,907/198/681/907198681.geojson,localadmin,85683067,,,,FI
"26.7411326172,60.2002014786,27.4664491387,60.6755818444",uuuu,85633143,,3506b07a84e353d4e8ed6569a875aeb6,,b6439e5a63e574f61871aba8c3eb0709,60.380818,27.035796,907198683,uuuu,FI,FI,1470852030,60.342293,27.000064,0,Kotka,85683081,907/198/683/907198683.geojson,localadmin,85683081,,,,FI
"25.8011015575,61.070917716,26.5136626338,61.425830871",uuuu,85633143,,dfab754157d9f61f54c2b5ce4387dd7d,,3bbaf7b6db7d9beff3bd5c3d54b4640c,61.257922,26.132695,907198689,uuuu,FI,FI,1470852032,61.267539,26.194945,0,Heinola,85683091,907/198/689/907198689.geojson,localadmin,85683091,,,,FI
"25.1997539213,61.0962904429,25.9273278362,61.364627985",uuuu,85633143,,d83ff832a42d87360f744ed4ec509f64,,5c471c25265403514253a5b5230f183d,61.21159,25.587163,907198691,uuuu,FI,FI,1470852033,61.226785,25.623477,0,Asikkala,85683091,907/198/691/907198691.geojson,localadmin,85683091,,,,FI
"25.4970411192,61.6735905757,25.9212754088,61.8923225746",uuuu,85633143,,da8f08ce3ffb4aff3860be131c931681,,2f6c96058caccb11e29b64ee2187090b,61.781215,25.69593,907198699,uuuu,FI,FI,1470852034,61.784249,25.695924,0,Luhanka,85683117,907/198/699/907198699.geojson,localadmin,85683117,,,,FI
"25.4374271246,61.3106213166,26.1877349566,61.718380652",uuuu,85633143,,04357330ff1df2a34d51c9d59156dcba,,6064835b890647819d04dfc852767def,61.498464,25.721742,907198701,uuuu,FI,FI,1470852036,61.511959,25.68434,0,Sysma,85683091,907/198/701/907198701.geojson,localadmin,85683091,,,,FI
"21.71324759,61.2919110784,22.1661258715,61.420976109",uuuu,85633143,,99929ab75257c0ae9ca1ebf7661e5785,,839b3d2a35cd5683b91f784a8c4d8f7a,61.359192,21.948573,907198705,uuuu,FI,FI,1470852036,61.348808,21.945169,0,Nakkila,85683095,907/198/705/907198705.geojson,localadmin,85683095,,,,FI
"24.0082628767,60.0224955653,24.3617682425,60.2946454689",uuuu,85633143,,9b5e3bd852c865895e600b6aab1029f1,,65d515aca1096c02f4ecd02192c92b74,60.169033,24.220675,907198709,uuuu,FI,FI,1470852037,60.18775,24.223276,0,Siuntio,85683067,907/198/709/907198709.geojson,localadmin,85683067,,,,FI
"24.8554903367,61.2399650556,25.5451589633,61.4869061838",uuuu,85633143,,f0c43b17f0cdda512f0014182536db67,,ce41294b06f905ca602753b24feaa7b9,61.36818,25.199747,907198715,uuuu,FI,FI,1470852038,61.359149,25.205102,0,Padasjoki,85683091,907/198/715/907198715.geojson,localadmin,85683091,,,,FI
"27.3565695032,60.3449234341,27.8887419057,60.6608501248",uuuu,85633143,,24d2b62d9be03af797bba60a869a6cba,,b57bcdff0f7be19ab7aaa519eeb1a90d,60.528208,27.607369,907198719,uuuu,FI,FI,1470852039,60.520638,27.611431,0,Virolahti,85683081,907/198/719/907198719.geojson,localadmin,85683081,,,,FI
"26.3158160667,61.1513019339,27.387824736,61.6036579599",uuuu,85633143,,a9b6bd65029e8fca7c01184fcc65cede,,f171e0bf2a8bd395a82f8c5cc5d4a618,61.347456,26.875602,907198721,uuuu,FI,FI,1470852042,61.396926,26.738301,0,Mantyharju,85683109,907/198/721/907198721.geojson,localadmin,85683109,,,,FI
"29.4072677793,61.7220728045,30.4830867015,62.2577529851",uuuu,85633143,,d86c238faffc15cfa722301a60fa7619,,55b0aee0e012c19e78fe8f38abaf2b19,62.028971,29.919394,907198727,uuuu,FI,FI,1470852044,61.987709,29.866515,0,Kitee,85683133,907/198/727/907198727.geojson,localadmin,85683133,,,,FI
"23.2207491576,61.1995966763,23.7371325668,61.3968254877",uuuu,85633143,,b4e92c070dfc5b0b2971446725e05c23,,d3105db896e4a02184b93146fc36c732,61.284347,23.485718,907198735,uuuu,FI,FI,1470852045,61.27467,23.48569,0,Vesilahti,85683099,907/198/735/907198735.geojson,localadmin,85683099,,,,FI
"27.4218373213,60.6010813845,27.9912828113,60.8426400374",uuuu,85633143,,947a7388be6cbab69d117f9bf37cf948,,5c1abcbb0c9415e12442342fbd1d48b9,60.709963,27.661706,907198737,uuuu,FI,FI,1470852047,60.71603,27.666036,0,Miehikkala,85683081,907/198/737/907198737.geojson,localadmin,85683081,,,,FI
"25.770850203,61.392893831,26.3480821695,61.8014078798",uuuu,85633143,,72b1070f365c580df88979c602969ebf,,57bf283c1bdb62c83b987f261d17d03f,61.584984,26.04912,907198739,uuuu,FI,FI,1470852048,61.573829,26.044624,0,Hartola,85683091,907/198/739/907198739.geojson,localadmin,85683091,,,,FI
"26.2348832017,61.3398318282,26.6557458662,61.6578052536",uuuu,85633143,,7172b337169631370532a29b2e833f63,,cc8dc459a598dd1867d6d67aa6230eba,61.499622,26.43631,907198743,uuuu,FI,FI,1470852049,61.508156,26.45694,0,Pertunmaa,85683109,907/198/743/907198743.geojson,localadmin,85683109,,,,FI
"25.8439301437,61.6084494151,26.5337514675,62.0432189989",uuuu,85633143,,e0d2fd64e00ceb827922cc861b40b9d9,,4e60f1f56dcb033363d1120543a762ce,61.829406,26.189024,907198751,uuuu,FI,FI,1470852051,61.823822,26.184344,0,Joutsa,85683117,907/198/751/907198751.geojson,localadmin,85683117,,,,FI
"26.3671813048,61.5034263865,27.0247970111,61.8659238501",uuuu,85633143,,8d65b85940bd32e2fb4012d6a391687a,,d92101af9fa6344c72ae7518c47605cc,61.694069,26.724501,907198755,uuuu,FI,FI,1470852053,61.700843,26.746994,0,Hirvensalmi,85683109,907/198/755/907198755.geojson,localadmin,85683109,,,,FI
"27.6743989717,61.3503928996,28.8178658839,61.7169412101",uuuu,85633143,,f384f044c115311b14576667e1c87993,,ef288ea36492ac2aecf819442780102a,61.51077,28.193846,907198757,uuuu,FI,FI,1470852055,61.530635,28.23292,0,Puumala,85683109,907/198/757/907198757.geojson,localadmin,85683109,,,,FI
"27.1766944494,61.0176916813,27.9311609187,61.3620783985",uuuu,85633143,,355714251a60a53fcab71478931fe44f,,3eb203d486e8784ed1694e2832df3593,61.184181,27.564346,907198759,uuuu,FI,FI,1470852057,61.141941,27.532989,0,Savitaipale,85683103,907/198/759/907198759.geojson,localadmin,85683103,,,,FI
"27.3712277307,61.5455955333,28.2277848582,62.0652775286",uuuu,85633143,,57ee120cce925c249eaafb2c557a3045,,625caedaf5e6a0257c76c4267cdb45da,61.840826,27.809106,907198761,uuuu,FI,FI,1470852059,61.840639,27.808668,0,Juva,85683109,907/198/761/907198761.geojson,localadmin,85683109,,,,FI
"26.8271668614,61.2089551636,27.9003824193,62.1991563842",uuuu,85633143,,e47f0832d16ae95688fdcb9239933054,,c59ade533115d55b468624578d8a3da7,61.676897,27.307015,907198765,uuuu,FI,FI,1470852062,61.635505,27.298839,0,Mikkeli,85683109,907/198/765/907198765.geojson,localadmin,85683109,,,,FI
"26.2207225444,61.788659388,27.1291678286,62.3077263526",uuuu,85633143,,9b44d780f052ba67f7422bbd55d06195,,e6dc8de532100ca948568c863f86038f,62.033294,26.622181,907198773,uuuu,FI,FI,1470852064,62.035682,26.615319,0,Kangasniemi,85683109,907/198/773/907198773.geojson,localadmin,85683109,,,,FI
"27.7474940403,61.0615933163,28.4091930902,61.379686546",uuuu,85633143,,14529303145b423c718574ce66ca0eef,,21ec85eecfde1ff30ccde410767a0e9a,61.232836,28.091962,907198779,uuuu,FI,FI,1470852067,61.234771,28.085872,0,Taipalsaari,85683103,907/198/779/907198779.geojson,localadmin,85683103,,,,FI
"28.088783276,61.5273051997,28.9560501795,61.9453100775",uuuu,85633143,,a18d97519c3ebef9a7bb9525b04c34b3,,629dfe638e5a13b8eddc3cf803ede912,61.745833,28.424238,907198787,uuuu,FI,FI,1470852069,61.801226,28.315872,0,Sulkava,85683109,907/198/787/907198787.geojson,localadmin,85683109,,,,FI
"28.2521979392,61.188489459,29.2615705592,61.560064411",uuuu,85633143,,31585f78af1e960ebb82f4d44a3f39e8,,890cddec8e9fd89be9c3d73f3cfe6cf0,61.37907,28.756589,907198791,uuuu,FI,FI,1470852071,61.36262,28.748838,0,Ruokolahti,85683103,907/198/791/907198791.geojson,localadmin,85683103,,,,FI
"20.829158418,61.6999238661,21.7521075293,62.0245911947",uuuu,85633143,,f936124e5cbdb516b8b95a3ea19edbe3,,ae6c2a477ddee8ffcad8de2c2b6c8f8c,61.851673,21.313972,907198797,uuuu,FI,FI,1470852071,61.838906,21.322604,0,Merikarvia,85683095,907/198/797/907198797.geojson,localadmin,85683095,,,,FI
"24.7838908293,61.4507025035,25.5352209606,61.7869493695",uuuu,85633143,,0aba4c90c4d4dfc93b7e1ca0132ec95d,,74ecba2b8537ab35d1a53418d9ea1086,61.61191,25.182457,907198799,uuuu,FI,FI,1470852072,61.604186,25.189661,0,Kuhmoinen,85683117,907/198/799/907198799.geojson,localadmin,85683117,,,,FI
"29.0192386493,61.2104348386,29.4487879823,61.5202133713",uuuu,85633143,,584210b9aaac4d829e2b206105fe3533,,c7e1f5bb852972642c4de660521e869b,61.375439,29.213387,907198805,uuuu,FI,FI,1470852074,61.366304,29.216622,0,Rautjarvi,85683103,907/198/805/907198805.geojson,localadmin,85683103,,,,FI
"21.6789743619,61.7465368398,22.175435158,62.0158624702",uuuu,85633143,,79a78adfef8537b15605ccfcfcf8c97c,,3b6869c56d5692a50f00693652a4813f,61.867761,21.89384,907198809,uuuu,FI,FI,1470852074,61.878008,21.889179,0,Siikainen,85683095,907/198/809/907198809.geojson,localadmin,85683095,,,,FI
"25.7679891073,61.9965963759,26.3316735247,62.2358638766",uuuu,85633143,,3eeb62c6862cb46a2361d6892313165f,,e90918da5a5d3178c8fa93a032be35fe,62.109791,26.074815,907198813,uuuu,FI,FI,1470852075,62.112368,26.117277,0,Toivakka,85683117,907/198/813/907198813.geojson,localadmin,85683117,,,,FI
"26.1957035334,62.1928380325,26.7803033873,62.5781539963",uuuu,85633143,,8bf02bd3a78ac80415a86214979b9fb6,,321e47e22e9ed2b1fb10b614007a826d,62.379426,26.452491,907198817,uuuu,FI,FI,1470852077,62.38256,26.447937,0,Hankasalmi,85683117,907/198/817/907198817.geojson,localadmin,85683117,,,,FI
"21.7280521227,61.6150117236,22.3826773953,61.782659356",uuuu,85633143,,02a66b07bf326d07e382fcb32ae06f61,,f6af3dbb4e6095453d250a636bb7c894,61.704619,22.049385,907198823,uuuu,FI,FI,1470852078,61.701486,22.098978,0,Pomarkku,85683095,907/198/823/907198823.geojson,localadmin,85683095,,,,FI
"20.728120034,61.9216684732,21.7662068865,62.4242987384",uuuu,85633143,,654e739a603ace306c1d1e962cd708ea,,c1b008d79462b51a3499a36693306e4b,62.132268,21.247851,907198827,uuuu,FI,FI,1470852078,62.107218,21.255646,0,Kristiinankaupunki,85683119,907/198/827/907198827.geojson,localadmin,85683119,,,,FI
"23.1953659522,60.8703644275,23.5025598598,61.0208919483",uuuu,85633143,,46e854c5576bc253bb61779728ecac7a,,5bec5aeda13d37133069d390eb358c76,60.944296,23.350126,907198829,uuuu,FI,FI,1470852079,60.928549,23.360582,0,Humppila,85683077,907/198/829/907198829.geojson,localadmin,85683077,,,,FI
"23.1356381342,60.7110753932,23.408623999,60.8924290861",uuuu,85633143,,165b0de6ef208eafde19fcbc7dc605b2,,414586dc85b4b2411f4c341f1a389db4,60.804345,23.26748,907198833,uuuu,FI,FI,1470852080,60.794862,23.283667,0,Ypaja,85683077,907/198/833/907198833.geojson,localadmin,85683077,,,,FI
"22.915072796,61.0012198067,23.3833601625,61.2237346214",uuuu,85633143,,f6b721286c557ebc63ebe618ed0ea84d,,9c9c0be64cba34049210e1f6d5335eb1,61.115973,23.128044,907198835,uuuu,FI,FI,1470852081,61.117191,23.128003,0,Punkalaidun,85683099,907/198/835/907198835.geojson,localadmin,85683099,,,,FI
"23.2272982231,60.9397547986,23.8785160954,61.2399725421",uuuu,85633143,,31997e862fc53be27f34dc0d52889535,,ebe4779f1f01deb01dc7cb7ff377c1d8,61.081543,23.49539,907198841,uuuu,FI,FI,1470852083,61.077963,23.463478,0,Urjala,85683099,907/198/841/907198841.geojson,localadmin,85683099,,,,FI
"26.826603556,62.4423412017,27.5394847873,62.8499457843",uuuu,85633143,,c66e6157217e1d705d19d8f562266355,,4bdb34132339cf0562785f97c664883d,62.619782,27.155351,907198847,uuuu,FI,FI,1470852085,62.617248,27.155103,0,Suonenjoki,85683131,907/198/847/907198847.geojson,localadmin,85683131,,,,FI
"29.2364229703,61.4244737745,30.143955961,61.8643164367",uuuu,85633143,,f69e3af492148a222a4f164aedb79f67,,7fa68a8348d156dcd6f21e2ec911e9c3,61.638532,29.633359,907198853,uuuu,FI,FI,1470852087,61.624783,29.62675,0,Parikkala,85683103,907/198/853/907198853.geojson,localadmin,85683103,,,,FI
"28.6327064259,62.570167479,29.3039567621,62.8484795068",uuuu,85633143,,76b275e29d998183a41294c481f39f36,,570597be37c860543e7eaadda2b48998,62.721838,28.953471,907198859,uuuu,FI,FI,1470852089,62.688012,28.902672,0,Outokumpu,85683133,907/198/859/907198859.geojson,localadmin,85683133,,,,FI
"28.9413357096,62.3597484209,29.7633226755,62.7223470469",uuuu,85633143,,8517417b3977e71b5b010052a3094e80,,4d278a4b45555435261bbe4b786b0388,62.542094,29.3828,907198863,uuuu,FI,FI,1470852091,62.539247,29.382861,0,Liperi,85683133,907/198/863/907198863.geojson,localadmin,85683133,,,,FI
"28.3702147736,61.5336984035,29.6968256275,62.4177569948",uuuu,85633143,,8c9a8fc29b836ddaaa6bfb3559754e52,,ed098a74d710ce26519d5303884c6dd4,61.915397,29.086844,907198867,uuuu,FI,FI,1470852095,61.776643,29.055924,0,Savonlinna,85683109,907/198/867/907198867.geojson,localadmin,85683109,,,,FI
"21.6254593122,61.9797595844,22.1987142844,62.2975108862",uuuu,85633143,,bba5945c5b848b415d908eb055dafca1,,b57a683ae16c5c3eb86566a691f84149,62.117954,21.901995,907198871,uuuu,FI,FI,1470852097,62.120176,21.896535,0,Isojoki,85683113,907/198/871/907198871.geojson,localadmin,85683113,,,,FI
"21.9746863706,61.8960962595,22.4498474855,62.1424481067",uuuu,85633143,,db2ef1bf8d7eb5813869a94c906f6c6f,,2025da079c7250b2d6d7044e7903db86,62.012649,22.223565,907198873,uuuu,FI,FI,1470852098,62.005461,22.207485,0,Honkajoki,85683095,907/198/873/907198873.geojson,localadmin,85683095,,,,FI
"27.493724566,61.9877591306,28.0920590657,62.3747594761",uuuu,85633143,,9126ede188e6925c649aff93e0971c5e,,8b70c8f098228c572893cbf9b1590274,62.172862,27.787102,907198879,uuuu,FI,FI,1470852099,62.153569,27.782425,0,Joroinen,85683109,907/198/879/907198879.geojson,localadmin,85683109,,,,FI
"27.8613216993,61.9138453565,28.7393142318,62.2454760307",uuuu,85633143,,4dab1fddffac4fe4a2337b651edf2f3e,,5882c6c9c326eb3974dcaf83215c9ea6,62.059492,28.288443,907198885,uuuu,FI,FI,1470852102,62.06045,28.295411,0,Rantasalmi,85683109,907/198/885/907198885.geojson,localadmin,85683109,,,,FI
"27.7104399779,60.6666580609,28.776648522,61.2846869295",uuuu,85633143,,4633c412933ecf60507c160b68a0ab94,,bd34e772ffeaaf43f58ef963c8c840ce,60.980459,28.261483,907198887,uuuu,FI,FI,1470852103,60.96719,28.25356,0,Lappeenranta,85683103,907/198/887/907198887.geojson,localadmin,85683103,,,,FI
"29.2959653346,62.146116799,30.0352044906,62.4074390525",uuuu,85633143,,6899b9f4a4dc794b5d979e83121bd19b,,2dc95c21fb27e4c130846270370db662,62.296108,29.673645,907198891,uuuu,FI,FI,1470852104,62.281065,29.710633,0,Raakkyla,85683133,907/198/891/907198891.geojson,localadmin,85683133,,,,FI
"26.446560233,62.4239986534,27.0101423193,62.849158717",uuuu,85633143,,8be6c1d95261bb42ac905572883869ad,,8ca0c029445efc8c61312cb2b2ab6711,62.642909,26.716185,907198897,uuuu,FI,FI,1470852105,62.667046,26.719954,0,Rautalampi,85683131,907/198/897/907198897.geojson,localadmin,85683131,,,,FI
"27.4067629758,62.2846033967,28.545461557,62.7058392858",uuuu,85633143,,898b735a77503dc57c23116872e2b1a0,,e071c4ba27ea5dac801a390a2dc04678,62.517788,27.926459,907198899,uuuu,FI,FI,1470852108,62.528926,27.926534,0,Leppavirta,85683131,907/198/899/907198899.geojson,localadmin,85683131,,,,FI
"21.8029888969,61.3845954397,22.4341601321,61.5732505081",uuuu,85633143,,a9f6da28097babff209c97055c156a84,,fc37a0b5488390ea2257e3389116eb3f,61.481685,22.113619,907198905,uuuu,FI,FI,1470852109,61.494832,22.107705,0,Ulvila,85683095,907/198/905/907198905.geojson,localadmin,85683095,,,,FI
"21.770638867,60.5576460563,22.4150036643,60.9042053838",uuuu,85633143,,ff77342bf67adf4e1e8c879651ea49aa,,794123dcad45a41a88f8f905932202f8,60.740102,22.026144,907198907,uuuu,FI,FI,1470852110,60.756592,22.021205,0,Mynamaki,85683073,907/198/907/907198907.geojson,localadmin,85683073,,,,FI
"22.0661370641,60.3335157017,22.4581628262,60.7372929019",uuuu,85633143,,21a401fc64f3cbc181e7e64ed2560784,,6dc6cb543fdb9785367408a68b43ae0d,60.470951,22.264367,907198909,uuuu,FI,FI,1470852111,60.398438,22.185785,0,Turku,85683073,907/198/909/907198909.geojson,localadmin,85683073,,,,FI
"21.5058703402,60.2600004045,22.1078421809,60.5636739857",uuuu,85633143,,c19553f57089ac879e081b5622020831,,93f0e51028954f42e3362f9adb9f96c9,60.402822,21.828496,907198913,uuuu,FI,FI,1470852112,60.406027,21.873892,0,Naantali,85683073,907/198/913/907198913.geojson,localadmin,85683073,,,,FI
"21.8440945905,60.8720057423,22.2636319124,61.3087891267",uuuu,85633143,,fd0a4bd2d7c2faa9f4b4ecc086293a7a,,c71a8a309da087655b4276bbc808d5c1,61.090133,22.069049,907198915,uuuu,FI,FI,1470852112,61.123042,22.121295,0,Eura,85683095,907/198/915/907198915.geojson,localadmin,85683095,,,,FI
"21.7773100415,60.4795634891,22.4150036643,60.7372929019",uuuu,85633143,,2101d26752c8998f207ca6ef44c2cea1,,9ae9447d1d9ccfe0e8435c65b08117f1,60.55834,22.005554,907198919,uuuu,FI,FI,1470852113,60.547563,21.955255,0,Masku,85683073,907/198/919/907198919.geojson,localadmin,85683073,,,,FI
"22.1603136299,60.6267482366,22.9422832123,60.9558288562",uuuu,85633143,,7bc4479f73e261d2f18c1fdd59a4f818,,1bc5f89e89bb8fbfec4595e5054bf366,60.787692,22.547637,907198921,uuuu,FI,FI,1470852114,60.767496,22.541803,0,Poytya,85683073,907/198/921/907198921.geojson,localadmin,85683073,,,,FI
"22.5224658612,60.8132460768,22.8169714932,60.9901992239",uuuu,85633143,,b69756c3942290ff32f8f3c7a6d8f9e8,,afe992b58d0d9872b9a59773bb3ff8ec,60.881223,22.670455,907198923,uuuu,FI,FI,1470852115,60.867514,22.682008,0,Oripaa,85683073,907/198/923/907198923.geojson,localadmin,85683073,,,,FI
"22.141903593,60.9160125279,22.7015445018,61.2519406251",uuuu,85633143,,b47993786f36f9adc56063612d7b96e2,,661eabfec1497010a2996e712d318c02,61.065828,22.381133,907198925,uuuu,FI,FI,1470852116,61.064074,22.381224,0,Sakyla,85683095,907/198/925/907198925.geojson,localadmin,85683095,,,,FI
"22.003643392,61.2651153212,22.2720240266,61.4319682172",uuuu,85633143,,6a2b09a181c80bdb6aaa8772f28813be,,dcb06f6a2f6bf6f183bddd1f7d63f012,61.336292,22.146344,907198927,uuuu,FI,FI,1470852116,61.349858,22.170765,0,Harjavalta,85683095,907/198/927/907198927.geojson,localadmin,85683095,,,,FI
"22.4803413545,60.9825861877,23.0062343098,61.3020128131",uuuu,85633143,,607e8fcc9598028971754f7bb9474897,,d142940ff253f73d351d1b0a995d9264,61.132228,22.724183,907198933,uuuu,FI,FI,1470852117,61.116899,22.698165,0,Huittinen,85683095,907/198/933/907198933.geojson,localadmin,85683095,,,,FI
"22.1141121801,61.1706232585,22.6099699189,61.488922542",uuuu,85633143,,cd3d9902f95b21ab432389fe4d8e339b,,55f8cc4f665b2c6e6872cffa6c9aac69,61.318326,22.396079,907198937,uuuu,FI,FI,1470852118,61.322602,22.399742,0,Kokemaki,85683095,907/198/937/907198937.geojson,localadmin,85683095,,,,FI
"22.4398455292,60.2100594187,22.8804460883,60.3930789269",uuuu,85633143,,fbd6e311d2f27c605291fd16fe880482,,a0cffabc8ea212d68d36f9f3ef1ca4e7,60.299559,22.665577,907198941,uuuu,FI,FI,1470852119,60.30317,22.661396,0,Sauvo,85683073,907/198/941/907198941.geojson,localadmin,85683073,,,,FI
"22.7909832536,59.9952092374,23.7959721227,60.5956768601",uuuu,85633143,,01a855984fbef071a7f3b2e1de3ddabd,,218833e0a1ef5bb6efa14945722772eb,60.338561,23.24007,907198943,uuuu,FI,FI,1470852121,60.362868,23.149142,0,Salo,85683073,907/198/943/907198943.geojson,localadmin,85683073,,,,FI
"23.2763346228,60.7397738011,23.5646684937,60.9476177989",uuuu,85633143,,a265e1a0d72dc974a7b514cfa98a55cc,,d9a980b6ea23eea2256116222f01d4ce,60.837094,23.459915,907198951,uuuu,FI,FI,1470852122,60.825409,23.47406,0,Jokioinen,85683077,907/198/951/907198951.geojson,localadmin,85683077,,,,FI
"27.1210694294,60.7953316023,27.9332457558,61.1064860589",uuuu,85633143,,469cd2e2cf3024b2b253522045315ad7,,64fdb080c62b5ae56de32455582645c6,60.939711,27.528077,907198953,uuuu,FI,FI,1470852123,60.910925,27.527869,0,Luumaki,85683103,907/198/953/907198953.geojson,localadmin,85683103,,,,FI
"21.9239285765,60.5642296263,22.4150036643,60.7474680562",uuuu,85633143,,ac5ff1373317ef89d5c5c0e1f571791b,,001f4c1b95135d76fc24950ce7d1be14,60.654013,22.165207,907198955,uuuu,FI,FI,1470852124,60.648927,22.150502,0,Nousiainen,85683073,907/198/955/907198955.geojson,localadmin,85683073,,,,FI
"22.0673872822,60.4478646898,22.2494038187,60.53085155",uuuu,85633143,,febbf686b8ef7726b95c7fa1e31d3503,,721297ff8f56ae9245216dc2593e8b87,60.490791,22.145568,907198957,uuuu,FI,FI,1470852125,60.496969,22.145553,0,Raisio,85683073,907/198/957/907198957.geojson,localadmin,85683073,,,,FI
"27.5727886563,60.9937523697,27.9911687894,61.1697172013",uuuu,85633143,,10c627255d24982267703a5c0d23e8a6,,435c2cf5fa019ece93c821b38ee613a7,61.074174,27.797145,907198959,uuuu,FI,FI,1470852126,61.078381,27.79703,0,Lemi,85683103,907/198/959/907198959.geojson,localadmin,85683103,,,,FI
"22.568686435,60.6988079991,23.2995858448,61.1014353236",uuuu,85633143,,b889e5e136ad47de9a22250880fab628,,ab376b44b90d8009f189ded779d0c4d7,60.897909,22.96373,907198963,uuuu,FI,FI,1470852127,60.878827,22.958137,0,Loimaa,85683073,907/198/963/907198963.geojson,localadmin,85683073,,,,FI
"26.2353927536,60.5750064462,27.4283596989,61.292578649",uuuu,85633143,,3054011def69147f74c364bdf910c8c7,,fa8c619d6b0f00d5b226897a2efa15a4,60.939816,26.773035,907198969,uuuu,FI,FI,1470852133,60.944357,26.781989,0,Kouvola,85683081,907/198/969/907198969.geojson,localadmin,85683081,,,,FI
"28.6685686665,61.0792549913,29.0219658354,61.2843543063",uuuu,85633143,,27945c106ce68a73bfda4a0e2fda32f0,,8e63eaf003afbf4f8c06472b3d4b195e,61.186654,28.839007,907198977,uuuu,FI,FI,1470852134,61.185368,28.838984,0,Imatra,85683103,907/198/977/907198977.geojson,localadmin,85683103,,,,FI
"22.1438372195,60.5037981202,22.4150036643,60.7372929019",uuuu,85633143,,670f16acada3ba4b134341246af1a6b5,,27da94c0eb9375911e210a9818a6c809,60.605047,22.289988,907198981,uuuu,FI,FI,1470852135,60.621789,22.299236,0,Rusko,85683073,907/198/981/907198981.geojson,localadmin,85683073,,,,FI
"20.3101780112,62.8939892965,22.0588536328,63.6289814759",uuuu,85633143,,f92947532bc73129ae021b1f333efd1a,,324a1620b1d874568d4d3f62808c996c,63.302382,21.24715,907198985,uuuu,FI,FI,1470852136,63.367386,21.260508,0,Mustasaari,85683119,907/198/985/907198985.geojson,localadmin,85683119,,,,FI
"21.7720610005,62.7515742078,22.2916144905,63.0487646104",uuuu,85633143,,2481fc95c0edd30cad827e01ecbfd918,,ed0c20939441c709bdda2223f016ea7c,62.882143,22.02717,907198989,uuuu,FI,FI,1470852137,62.8801,22.047981,0,Laihia,85683119,907/198/989/907198989.geojson,localadmin,85683119,,,,FI
"22.2742159498,60.3450950055,22.6094302421,60.4980483605",uuuu,85633143,,4a9cb35797a77f90c69d6778425ca91b,,f45daaf541e08363f3257433491ae418,60.412283,22.465437,907198993,uuuu,FI,FI,1470852141,60.403859,22.481993,0,Kaarina,85683073,907/198/993/907198993.geojson,localadmin,85683073,,,,FI
"23.6565113093,63.7562556751,24.2474522594,64.0919295122",uuuu,85633143,,2837277637c738fb49b4abd9bb238090,,4d7d949b6ac037f8257cf311fb6952f0,63.925645,23.968318,907198997,uuuu,FI,FI,1470852142,63.933868,24.02168,0,Kannus,85683125,907/198/997/907198997.geojson,localadmin,85683125,,,,FI
"23.1366684553,61.3276095759,23.6131380485,61.5722521079",uuuu,85633143,,2e0246fb0f90366f87b7efb988d0e26c,,e9c2c29b321326b87591b220f24c2096,61.452595,23.369484,907198999,uuuu,FI,FI,1470852143,61.435292,23.333421,0,Nokia,85683099,907/198/999/907198999.geojson,localadmin,85683099,,,,FI
"22.1501515777,62.5971153476,22.877516374,62.8759060146",uuuu,85633143,,313ce3b3a4c7e5569aec48a2af2bf7fe,,6b00af8ef7fb81750dae79d254cb7c79,62.729801,22.554156,907199003,uuuu,FI,FI,1470852144,62.729399,22.554181,0,Ilmajoki,85683113,907/199/003/907199003.geojson,localadmin,85683113,,,,FI
"21.6568059508,62.2690057787,23.1445182276,62.8654963924",uuuu,85633143,,527e130aced8ffd688dda5bd6007b755,,f8c07a218ae4bc617bb7a0ccbb6b6f7e,62.548713,22.466382,907199007,uuuu,FI,FI,1470852145,62.45071,22.787289,0,Kurikka,85683113,907/199/007/907199007.geojson,localadmin,85683113,,,,FI
"22.3532096905,60.447065229,22.8546839606,60.640907194",uuuu,85633143,,c1d9eec070ae53ea2d08fa28f341726c,,a8ae51cf8ea882b2c0b8fb83c6bf7026,60.552536,22.574699,907199011,uuuu,FI,FI,1470852147,60.528205,22.516144,0,Lieto,85683073,907/199/011/907199011.geojson,localadmin,85683073,,,,FI
"26.6619701727,62.0058620948,27.6930796358,62.5300176131",uuuu,85633143,,bab91569ce378d400bfae6fd80c7df6e,,b339f39f9c69f927761ceb60cac7ba77,62.292105,27.202321,907199013,uuuu,FI,FI,1470852150,62.281931,27.315367,0,Pieksamaki,85683109,907/199/013/907199013.geojson,localadmin,85683109,,,,FI
"28.6366553076,61.9961235164,29.132383001,62.2745371469",uuuu,85633143,,6c9685df54cd8ca335557b1f93a53577,,11641e965464540e7bf907f12e3fec13,62.124946,28.889432,907199021,uuuu,FI,FI,1470852153,62.107428,28.927055,0,Enonkoski,85683109,907/199/021/907199021.geojson,localadmin,85683109,,,,FI
"28.1434833889,62.1452960941,29.1838888474,62.6570216811",uuuu,85633143,,97f82d44329320eea6413e3d4e045341,,20afc37899607808d751706d85d80c71,62.433857,28.721125,907199027,uuuu,FI,FI,1470852156,62.439721,28.682299,0,Heinavesi,85683109,907/199/027/907199027.geojson,localadmin,85683109,,,,FI
"20.3001811247,62.6561838868,21.4129391666,62.9395290302",uuuu,85633143,,131f69bf556dd2e55ca539d9c90e980d,,46d34ae337dff41983cd2ebcf7148ea5,62.806283,20.847086,907199033,uuuu,FI,FI,1470852158,62.805105,20.846483,0,Korsnas,85683119,907/199/033/907199033.geojson,localadmin,85683119,,,,FI
"20.6917192805,62.2478014006,21.2723123725,62.3969452402",uuuu,85633143,,26a4ce2fdc74d228eb278a3be31f561f,,00ce6278f4f42533c3ab05fa53956689,62.303364,20.993878,907199039,uuuu,FI,FI,1470852158,62.296919,20.99324,0,Kaskinen,85683119,907/199/039/907199039.geojson,localadmin,85683119,,,,FI
"20.1658189049,62.7356640951,21.7851316576,63.2676447036",uuuu,85633143,,449dbf8b76bd252a839a65043e641f4f,,c9775c67672e8aebcd4ee4bd6c3c50ea,63.008992,20.916401,907199043,uuuu,FI,FI,1470852159,63.0625,20.658996,0,Maalahti,85683119,907/199/043/907199043.geojson,localadmin,85683119,,,,FI
"21.5994740684,63.2820480483,22.9806989104,63.7599452311",uuuu,85633143,,2d8c62d18c8e877521be2921c5f05309,,ca424487221d7726df7bcbc4551deaaa,63.522532,22.304208,907199045,uuuu,FI,FI,1470852160,63.517713,22.294268,0,Uusikaarlepyy,85683119,907/199/045/907199045.geojson,localadmin,85683119,,,,FI
"22.2878770162,63.4991103776,24.4927102049,64.1789692938",uuuu,85633143,,9343c122fd514985e1ab6e76c41c4052,,4fb5fd7e3b912e9d7e2ac9f64baf3227,63.905859,23.306553,907199049,uuuu,FI,FI,1470852162,63.929535,23.213868,0,Kokkola,85683125,907/199/049/907199049.geojson,localadmin,85683125,,,,FI
"28.1630932313,62.5800920722,28.7476924575,62.9644440182",uuuu,85633143,,0bee005c627a3233deb2a386215dd247,,21562b9d75b24b93afadc12b85f7e065,62.777429,28.479543,907199053,uuuu,FI,FI,1470852163,62.787967,28.483995,0,Tuusniemi,85683131,907/199/053/907199053.geojson,localadmin,85683131,,,,FI
"22.4150036643,60.5658761434,22.687587563,60.7372929019",uuuu,85633143,,fdaf2ef6e5e0c3d940bac3e55f8822c7,,b5481795b834cd1ea52ceea8dfd856c1,60.636566,22.545693,907199059,uuuu,FI,FI,1470852164,60.62435,22.543286,0,Aura,85683073,907/199/059/907199059.geojson,localadmin,85683073,,,,FI
"23.797652474,61.1019294578,24.2971229313,61.3438249319",uuuu,85633143,,4d18b3a0eeabe1952012d174c3e044f7,,560e2d12cc83a343ed26e97310133bb3,61.217833,24.056038,907199063,uuuu,FI,FI,1470852165,61.213843,24.039069,0,Valkeakoski,85683099,907/199/063/907199063.geojson,localadmin,85683099,,,,FI
"21.5234890051,62.2127711059,21.9389813363,62.4221991273",uuuu,85633143,,f45d104aa4eb443875865c898a83106b,,96e3d91cf965856611ba2b42abc2d30d,62.325426,21.74102,907199065,uuuu,FI,FI,1470852166,62.319486,21.744142,0,Karijoki,85683113,907/199/065/907199065.geojson,localadmin,85683113,,,,FI
"21.9787385954,63.6104149904,22.8234405936,63.8329906136",uuuu,85633143,,8430966f32348881b6c113fa95f75129,,e530154e3fc58379fc9d004a0abccfa4,63.717466,22.393098,907199069,uuuu,FI,FI,1470852167,63.714224,22.386115,0,Pietarsaari,85683119,907/199/069/907199069.geojson,localadmin,85683119,,,,FI
"22.1379090707,62.7911419026,22.6941827088,63.1029833701",uuuu,85633143,,8cfd0aa7fa31d2ddf71419e12e0d0e69,,a00507b4634a076623787fbf50187d76,62.975597,22.34211,907199075,uuuu,FI,FI,1470852168,62.957165,22.314928,0,Isokyro,85683119,907/199/075/907199075.geojson,localadmin,85683119,,,,FI
"23.9919641296,62.6755518047,24.5195919483,63.0132736314",uuuu,85633143,,6ce7599408babbf100a9907039d8fd13,,94389f21264cbc3d345c8620c288add3,62.840766,24.235977,907199079,uuuu,FI,FI,1470852169,62.870958,24.235428,0,Soini,85683113,907/199/079/907199079.geojson,localadmin,85683113,,,,FI
"24.33590944,62.710430464,25.3024434968,63.0463319953",uuuu,85633143,,0990962a7e353a7000395d079ec06a5c,,91c9d8b9de5db6ed97cb6405c4e29f11,62.885657,24.773272,907199083,uuuu,FI,FI,1470852176,62.901237,24.780618,0,Karstula,85683117,907/199/083/907199083.geojson,localadmin,85683117,,,,FI
"23.8352362231,62.3633263712,24.5843158868,62.7640274943",uuuu,85633143,,66dfbfa2d335e0d40721e9ed9c22ee32,,a5b7cf8b75525cffa85e9647d8be5317,62.574292,24.198926,907199089,uuuu,FI,FI,1470852177,62.590051,24.192956,0,Ahtari,85683113,907/199/089/907199089.geojson,localadmin,85683113,,,,FI
"24.5036392202,62.3158954369,25.2519130863,62.665662886",uuuu,85633143,,ce7e2bee9a9295ee730137072b8f3875,,32f420d3f631c5d35cbae085de3a2d01,62.477375,24.862316,907199095,uuuu,FI,FI,1470852179,62.461155,24.893388,0,Multia,85683117,907/199/095/907199095.geojson,localadmin,85683117,,,,FI
"24.5246440053,61.6306526567,25.5962234983,62.2108012362",uuuu,85633143,,00ed729649ba6d9b8dd61df165f4c6c8,,41ac074f3361de7a9e3890972e7e007a,61.919639,25.057391,907199101,uuuu,FI,FI,1470852180,61.970777,25.065541,0,Jamsa,85683117,907/199/101/907199101.geojson,localadmin,85683117,,,,FI
"23.4579119636,62.7300826367,24.3573458061,63.1585733352",uuuu,85633143,,04db3050b00be3bf878f3ae4df0725f4,,7f24bbf67050968ffd16609f59afdae2,62.96927,23.908881,907199105,uuuu,FI,FI,1470852182,62.934362,23.840478,0,Alajarvi,85683113,907/199/105/907199105.geojson,localadmin,85683113,,,,FI
"24.2155574411,62.9312154236,24.8816579419,63.1574805919",uuuu,85633143,,086ff4bc436529162e44abdef47f2bfd,,2612b8a0af272bf9328a60bb2f39ca18,63.056277,24.555601,907199107,uuuu,FI,FI,1470852183,63.057013,24.522843,0,Kyyjarvi,85683117,907/199/107/907199107.geojson,localadmin,85683117,,,,FI
"24.052027817,63.1164295097,24.8036026433,63.392232652",uuuu,85633143,,3546eb1d670dc3b835847ff78883e057,,3196ab8993996e5dac0133ce0498caf4,63.256451,24.460297,907199111,uuuu,FI,FI,1470852184,63.257455,24.460343,0,Perho,85683125,907/199/111/907199111.geojson,localadmin,85683125,,,,FI
"24.3986976492,60.7445692871,24.9929680668,61.0323149164",uuuu,85633143,,349115fa300e020185b874e7fb05cc8e,,b36403e4ea79a55d8fe04dfbf7a110dd,60.891367,24.685736,907199113,uuuu,FI,FI,1470852185,60.90119,24.665808,0,Janakkala,85683077,907/199/113/907199113.geojson,localadmin,85683077,,,,FI
"22.3736883891,61.9981058567,22.8616264353,62.3111035193",uuuu,85633143,,2d37780566ae608f8eab147333830956,,cba6ab942f0532b73a3790bd642e1baa,62.151589,22.615892,907199119,uuuu,FI,FI,1470852186,62.172045,22.644925,0,Karvia,85683095,907/199/119/907199119.geojson,localadmin,85683095,,,,FI
"21.868986212,62.1021355962,22.6632539811,62.5508432803",uuuu,85633143,,13815ac6b79d1eb5e52ca267de88cabf,,c4db8c4e6e6f0983dcf07763979b501c,62.340302,22.25746,907199121,uuuu,FI,FI,1470852187,62.338333,22.2515,0,Kauhajoki,85683113,907/199/121/907199121.geojson,localadmin,85683113,,,,FI
"22.5207497582,61.8958701905,23.3661961669,62.2889089402",uuuu,85633143,,6e6d3ed3314d5834f96987323d72bf99,,db2e60fd063398aae2aa3134ecb4c8b8,62.049788,22.978918,907199125,uuuu,FI,FI,1470852188,62.08677,22.950187,0,Parkano,85683099,907/199/125/907199125.geojson,localadmin,85683099,,,,FI
"22.8240685249,61.5159420124,23.5004825347,61.7372596623",uuuu,85633143,,199b73de75a055e3e7a3fa4b99d5f0c7,,a84352d8548df06442d77f9eff4b8915,61.623524,23.178787,907199131,uuuu,FI,FI,1470852189,61.648927,23.127579,0,Hameenkyro,85683099,907/199/131/907199131.geojson,localadmin,85683099,,,,FI
"25.0818715539,63.2456308117,26.1767119202,63.6122932286",uuuu,85633143,,3f893e051b2abc1f7bba1cf0ad1e0772,,27aeb4777166ce70d2466f15675397d4,63.409838,25.584149,907199135,uuuu,FI,FI,1470852190,63.393311,25.592424,0,Pihtipudas,85683117,907/199/135/907199135.geojson,localadmin,85683117,,,,FI
"24.7729209672,63.2315597624,25.333469424,63.4671681862",uuuu,85633143,,215eb9389ac4b5375a8a0ad89bbaa16d,,a2f800c55216d74ead38041175f4ab8d,63.333475,25.029321,907199139,uuuu,FI,FI,1470852191,63.345074,25.029327,0,Kinnula,85683117,907/199/139/907199139.geojson,localadmin,85683117,,,,FI
"24.5210329184,63.4580731617,25.3601829359,63.7655798887",uuuu,85633143,,9209b06f6e1b49e55f93c408ec56ee5d,,ce3e4ad5c48527340b50bf669f9349e9,63.622874,24.978436,907199141,uuuu,FI,FI,1470852191,63.606463,25.027476,0,Reisjarvi,85683143,907/199/141/907199141.geojson,localadmin,85683143,,,,FI
"24.7316112245,63.0078792512,25.3792023846,63.2786542066",uuuu,85633143,,04f13c7ccd80630625a0fe06e9e382cc,,ecf2cd8e09c369a53f094cecee8dcdbd,63.153486,25.053606,907199147,uuuu,FI,FI,1470852192,63.139341,25.027528,0,Kivijarvi,85683117,907/199/147/907199147.geojson,localadmin,85683117,,,,FI
"21.0276273273,62.9594091281,22.2423225711,63.1788539831",uuuu,85633143,,15a42bce1f64b58039ce2aae3c826e07,,0d995258c6e93ca38c97d3c5e43fcc82,63.078746,21.659993,907199149,uuuu,FI,FI,1470852193,63.084086,21.502622,0,Vaasa,85683119,907/199/149/907199149.geojson,localadmin,85683119,,,,FI
"25.3480441826,63.4291308523,26.2919656874,63.9263763852",uuuu,85633143,,58fa2cdaa7a2c726bbdcd5dc1789a3d3,,edb1ec33ab2e7e8180b3a8f121863cc7,63.660319,25.920425,907199151,uuuu,FI,FI,1470852194,63.649712,25.967392,0,Pyhajarvi,85683143,907/199/151/907199151.geojson,localadmin,85683143,,,,FI
"22.9943621714,62.0826650989,23.4240020886,62.3341666993",uuuu,85633143,,36efd0130eb10fce2e681dbc7d363aca,,cf00c2b8f0bb639b5c76a15fbde005d2,62.206706,23.193376,907199155,uuuu,FI,FI,1470852194,62.207443,23.197436,0,Kihnio,85683099,907/199/155/907199155.geojson,localadmin,85683099,,,,FI
"23.1612262313,62.3677505801,23.9993677934,62.8089345388",uuuu,85633143,,e488e675d9681b6b891d4b76dfe437b9,,8f6e771e47e585ffebf547af8f91fc4e,62.583234,23.599328,907199157,uuuu,FI,FI,1470852195,62.567694,23.673265,0,Alavus,85683113,907/199/157/907199157.geojson,localadmin,85683113,,,,FI
"22.5394019913,63.3473025345,23.3904624548,63.8261377525",uuuu,85633143,,4d93b621620d80659d63a83f993327fa,,2da1ee85168383ade038e03309f7e152,63.540416,22.988702,907199161,uuuu,FI,FI,1470852196,63.520304,23.027282,0,Pedersoren kunta,85683119,907/199/161/907199161.geojson,localadmin,85683119,,,,FI
"22.0965031622,63.4730194063,23.4057586753,64.0093819127",uuuu,85633143,,010a64028f8241efa7fe7940e6f879b8,,b522bacb9acd95d7e62a5bcea454ff0b,63.849281,22.531343,907199167,uuuu,FI,FI,1470852198,63.861147,22.490711,0,Luoto,85683119,907/199/167/907199167.geojson,localadmin,85683119,,,,FI
"23.2067800368,62.0740403498,24.2352696975,62.4943339008",uuuu,85633143,,4a9257f564ec1eae7a6b8219ad92c725,,72fc4be39b829ac3573fc591570878f5,62.272565,23.703014,907199171,uuuu,FI,FI,1470852199,62.246328,23.668187,0,Virrat,85683099,907/199/171/907199171.geojson,localadmin,85683099,,,,FI
"24.4085424836,63.3586841161,25.0363155553,63.6532376364",uuuu,85633143,,19d5fe962d3d81ff700b9832f37e86d1,,10110eb9a80a598663cecc0a38ae32fe,63.499793,24.697492,907199175,uuuu,FI,FI,1470852200,63.499436,24.697556,0,Lestijarvi,85683125,907/199/175/907199175.geojson,localadmin,85683125,,,,FI
"24.013003209,62.0231917496,25.071853965,62.5296847628",uuuu,85633143,,8b15c5371b38adc99aa75a53f9b74257,,b12f583500c0fcb141d4f761ed99cc62,62.292033,24.536516,907199179,uuuu,FI,FI,1470852201,62.33839,24.456652,0,Keuruu,85683117,907/199/179/907199179.geojson,localadmin,85683117,,,,FI
"23.8901924845,61.3157813274,24.9704799176,61.6271912908",uuuu,85633143,,598bd2f2924ba5d5506dbd3889d6713a,,b8bc422dd4da5040ec3cffdc1ee9e2b0,61.480662,24.315779,907199185,uuuu,FI,FI,1470852202,61.493324,24.127972,0,Kangasala,85683099,907/199/185/907199185.geojson,localadmin,85683099,,,,FI
"24.0791391358,61.2332825958,24.915136182,61.4910067085",uuuu,85633143,,2e96f7c4f58c2679dde2ce86654968aa,,86d89316853afa27f700a4bdcddbc20d,61.350925,24.525528,907199187,uuuu,FI,FI,1470852203,61.336582,24.380081,0,Palkane,85683099,907/199/187/907199187.geojson,localadmin,85683099,,,,FI
"25.1247457096,62.3770571907,25.6951507051,62.5569066566",uuuu,85633143,,b67c8d1a54ad22ff192a607a55fdc3b9,,5df6511246e28bd868c885eaaa1abf7d,62.472029,25.411253,907199197,uuuu,FI,FI,1470852209,62.458978,25.43452,0,Uurainen,85683117,907/199/197/907199197.geojson,localadmin,85683117,,,,FI
"25.5791332737,62.1812785182,26.3309635285,62.5835858218",uuuu,85633143,,9e721ac2dd1f395d12a5e9e96df5721a,,1fffacb72737e5fd12bcdc7b4b8126d8,62.391429,26.005924,907199203,uuuu,FI,FI,1470852210,62.422779,26.011587,0,Laukaa,85683117,907/199/203/907199203.geojson,localadmin,85683117,,,,FI
"25.4739744472,62.4804379177,26.2337642557,62.9207753152",uuuu,85633143,,bbf47712240c7356b8501e0dc501d79c,,08dd1ef4a24ebf44116ff019e198614d,62.704483,25.826888,907199205,uuuu,FI,FI,1470852211,62.713392,25.857621,0,Aanekoski,85683117,907/199/205/907199205.geojson,localadmin,85683117,,,,FI
"22.5746262917,60.3643338638,22.8759136788,60.5480505263",uuuu,85633143,,abfbe44ce714d34bb62a9dac293d3f5b,,f514c71f28e75d01031f0421d445f16e,60.453381,22.722265,907199209,uuuu,FI,FI,1470852212,60.460842,22.710094,0,Paimio,85683073,907/199/209/907199209.geojson,localadmin,85683073,,,,FI
"24.5042385617,62.5208332223,25.6966011188,62.9095599099",uuuu,85633143,,10a54fc0f09993216e2d9b852b5f7349,,09d887045b6684f2d13d352b245bb6bc,62.702362,25.132313,907199213,uuuu,FI,FI,1470852213,62.709257,25.091621,0,Saarijarvi,85683117,907/199/213/907199213.geojson,localadmin,85683117,,,,FI
"24.9688081356,62.1523621644,25.4890675552,62.4270134071",uuuu,85633143,,55cd65cc45076cafbb657db71cc43e24,,fe6a51e855d0f325acdc1c4d3aeeca34,62.290287,25.219935,907199215,uuuu,FI,FI,1470852214,62.290586,25.1939,0,Petajavesi,85683117,907/199/215/907199215.geojson,localadmin,85683117,,,,FI
"24.005962719,60.8574315587,24.6243964589,61.2401163151",uuuu,85633143,,f3f3f7e5c87463d6af00838ec19e8d07,,cdf4742eb5336ceca0b23a5dfdc8db5b,61.044191,24.286468,907199219,uuuu,FI,FI,1470852215,61.099971,24.33775,0,Hattula,85683077,907/199/219/907199219.geojson,localadmin,85683077,,,,FI
"25.3093176241,62.8683080342,26.3342741338,63.2898306724",uuuu,85633143,,5c26d43eb25c16897cd511ceafabf407,,5fdfb408b7392eafa5cc59ad66c54e94,63.10198,25.821369,907199223,uuuu,FI,FI,1470852216,63.090508,25.811649,0,Viitasaari,85683117,907/199/223/907199223.geojson,localadmin,85683117,,,,FI
"25.0435135925,62.8184639411,25.7074841326,63.0992692231",uuuu,85633143,,f456672b33fac39e897b334234e8504f,,a165f57b4d7fd3591f6c3c1024abc7ce,62.968735,25.340264,907199227,uuuu,FI,FI,1470852217,62.967518,25.335293,0,Kannonkoski,85683117,907/199/227/907199227.geojson,localadmin,85683117,,,,FI
"23.5422998966,61.4273684904,24.1185167433,61.8366139003",uuuu,85633143,,2d4b331300e41432b2f9959022524395,,4a8d933baf7894eba822d98d494c69fa,61.629284,23.88145,907199231,uuuu,FI,FI,1470852218,61.626087,23.881535,0,Tampere,85683099,907/199/231/907199231.geojson,localadmin,85683099,,,,FI
"22.5528420943,62.9995617045,23.471768668,63.3989614269",uuuu,85633143,,65dd835a8ca6343f6c7e325e34a6dcaa,,fecb4709e930f0dd7595e7f092b5ccb6,63.196586,23.027307,907199237,uuuu,FI,FI,1470852220,63.198926,23.064518,0,Kauhava,85683113,907/199/237/907199237.geojson,localadmin,85683113,,,,FI
"22.7841525644,62.7747093778,23.5405399708,63.1062195791",uuuu,85633143,,4a0725589dffc0808036815924fe7cb2,,547efe9db180f7d19c4046f977608016,62.945374,23.149779,907199241,uuuu,FI,FI,1470852221,62.927884,23.186575,0,Lapua,85683113,907/199/241/907199241.geojson,localadmin,85683113,,,,FI
"23.7567567119,60.7539797253,25.26966276,61.3248813271",uuuu,85633143,,b2078f7ccb7db0c83c6f3e4883d4e7fc,,55473b2b4c07c05ca3f0101277aacb77,61.074795,24.57669,907199245,uuuu,FI,FI,1470852225,61.152282,24.702818,0,Hameenlinna,85683077,907/199/245/907199245.geojson,localadmin,85683077,,,,FI
"23.2803136704,62.9790899404,23.8624866055,63.3789428265",uuuu,85633143,,3a5e4cec81c343304fa47b9aa98cb9aa,,e3af9c6aec4ce66e21a54e7218462ef9,63.190419,23.597421,907199255,uuuu,FI,FI,1470852227,63.183523,23.591944,0,Lappajarvi,85683113,907/199/255/907199255.geojson,localadmin,85683113,,,,FI
"25.4705999867,62.0635541899,25.7952417668,62.2428266457",uuuu,85633143,,81f35d853e04380cc7749141705fb072,,1d44e18c656e05d7ea5fdca04298d381,62.139976,25.618551,907199257,uuuu,FI,FI,1470852227,62.130584,25.629616,0,Muurame,85683117,907/199/257/907199257.geojson,localadmin,85683117,,,,FI
"22.7992140551,60.5108829419,23.1007171877,60.7156797249",uuuu,85633143,,389978dc73e958ee2c832993cf10b0a1,,af7010a37b234baced16c4da2cd86dbf,60.601227,22.934454,907199259,uuuu,FI,FI,1470852228,60.614054,22.932206,0,Marttila,85683073,907/199/259/907199259.geojson,localadmin,85683073,,,,FI
"26.0398377907,62.7470205677,26.6813460204,63.043916156",uuuu,85633143,,4d33c57c1655e18ebccc57133fe8ae3c,,73a289e3d826b434a8a6106238e0e477,62.899272,26.385492,907199263,uuuu,FI,FI,1470852229,62.902115,26.417209,0,Vesanto,85683131,907/199/263/907199263.geojson,localadmin,85683131,,,,FI
"25.2607803487,61.839211429,26.0513462151,62.4287455719",uuuu,85633143,,ba3d48590358a70c5823b237a01b6841,,576b7febf239b65966531daf9ee32d3a,62.131113,25.647388,907199265,uuuu,FI,FI,1470852230,61.966051,25.686058,0,Jyvaskyla,85683117,907/199/265/907199265.geojson,localadmin,85683117,,,,FI
"26.0247973218,62.4785136842,26.5990883818,62.8482029171",uuuu,85633143,,070d88d690566d13615b9aaf343c3624,,669220b44a15e217771bef2d4defff18,62.65776,26.310455,907199269,uuuu,FI,FI,1470852231,62.649028,26.329861,0,Konnevesi,85683117,907/199/269/907199269.geojson,localadmin,85683117,,,,FI
"23.6979461321,63.0754853617,24.2344809058,63.308576165",uuuu,85633143,,31da67be8cc79a56b57fefd889a8d2db,,55d1d7d989a8066ebe806e7bfd24f84d,63.181305,23.941227,907199273,uuuu,FI,FI,1470852232,63.193524,23.938057,0,Vimpeli,85683113,907/199/273/907199273.geojson,localadmin,85683113,,,,FI
"23.208301348,61.5160873678,23.8851107196,62.1650074468",uuuu,85633143,,fef3311e86569aa7d3b2f1cc46506532,,6a20d92466547836ac5bf983c8bff29a,61.840659,23.563841,907199275,uuuu,FI,FI,1470852233,61.985568,23.540808,0,Ylojarvi,85683099,907/199/275/907199275.geojson,localadmin,85683099,,,,FI
"26.0705405866,62.9918341173,26.6224568656,63.4433674187",uuuu,85633143,,4c2328a832ce48eb0914f17c3e1dcb24,,860740c396c41803e7582dfd1c4e4a68,63.19673,26.315587,907199277,uuuu,FI,FI,1470852234,63.177655,26.315512,0,Keitele,85683131,907/199/277/907199277.geojson,localadmin,85683131,,,,FI
"23.5462699129,61.230711751,23.9673094479,61.4323860881",uuuu,85633143,,9f377d52e4d1a2c2f3dbda18aa58bcda,,76793f72740298462133698f28861062,61.345567,23.777681,907199279,uuuu,FI,FI,1470852235,61.343815,23.794735,0,Lempaala,85683099,907/199/279/907199279.geojson,localadmin,85683099,,,,FI
"23.4772385276,61.3568483984,23.7418475385,61.4874582272",uuuu,85633143,,613304f3452e91be86fc1963510dd08c,,3393ebb1f359800db85f5492c66f64bf,61.433833,23.607029,907199281,uuuu,FI,FI,1470852236,61.440859,23.609085,0,Pirkkala,85683099,907/199/281/907199281.geojson,localadmin,85683099,,,,FI
"23.1961381365,63.2636263504,23.723793044,63.4980466525",uuuu,85633143,,3b1fe5ad67d68b55fd66b1a451bea538,,fe6473e598e721e7cc2c6cc750798ac9,63.384755,23.443019,907199283,uuuu,FI,FI,1470852237,63.383341,23.438037,0,Evijarvi,85683113,907/199/283/907199283.geojson,localadmin,85683113,,,,FI
"22.3026209162,62.3191979472,23.367803168,63.0853649248",uuuu,85633143,,de3ff1847a1c570a5596d7cd85eb210f,,235f0813ffda528d212d702a1fbf3029,62.742064,22.903655,907199285,uuuu,FI,FI,1470852238,62.692972,22.999388,0,Seinajoki,85683113,907/199/285/907199285.geojson,localadmin,85683113,,,,FI
"26.1386397546,63.0420709382,27.148138093,63.5164078507",uuuu,85633143,,e33aa4f9ae41bec546581ef93d50aebf,,4485a8f83b7493c0ea601664ac6865f3,63.286985,26.682794,907199287,uuuu,FI,FI,1470852240,63.248037,26.675583,0,Pielavesi,85683131,907/199/287/907199287.geojson,localadmin,85683131,,,,FI
"23.2712552064,62.6482695452,23.8470488426,62.9197322666",uuuu,85633143,,7554b0bea58752b157bfa4dd6b9bb2f6,,72eddb2c9a8b43fd3c27f1611fb69d6d,62.783909,23.510931,907199291,uuuu,FI,FI,1470852242,62.789766,23.515279,0,Kuortane,85683113,907/199/291/907199291.geojson,localadmin,85683113,,,,FI
"23.6574123995,63.2581449623,24.1978678066,63.5374273065",uuuu,85633143,,01487843379f9b8ca69f1fa5650ebcb5,,5c449716adb6f98ff44be12d6760db83,63.399268,23.908133,907199293,uuuu,FI,FI,1470852243,63.39304,23.886276,0,Veteli,85683125,907/199/293/907199293.geojson,localadmin,85683125,,,,FI
"23.6806223578,61.7871609401,24.453073307,62.1820265693",uuuu,85633143,,829487327f1f89a8466dae301480c9b8,,c5aae0dbf7515a1ba1b105c9e943a271,61.969718,24.052573,907199295,uuuu,FI,FI,1470852245,61.956537,24.026218,0,Ruovesi,85683099,907/199/295/907199295.geojson,localadmin,85683099,,,,FI
"22.6794408155,61.6751393066,23.5938752915,61.9844605021",uuuu,85633143,,78ef9e3f57f4a247efc1d487860a5cdc,,1d1f9ed25d0f6a5e7b364b976af99367,61.825278,23.083091,907199297,uuuu,FI,FI,1470852246,61.825181,23.083668,0,Ikaalinen,85683099,907/199/297/907199297.geojson,localadmin,85683099,,,,FI
"22.0348243032,61.6860667421,22.6951533965,62.0117221176",uuuu,85633143,,50de29062a703beafec5c2e45547e22d,,d131d539090c1851a9b041533e7b9d20,61.839604,22.392721,907199299,uuuu,FI,FI,1470852247,61.843191,22.39793,0,Kankaanpaa,85683095,907/199/299/907199299.geojson,localadmin,85683095,,,,FI
"24.0340042707,63.3319184715,24.5548297918,63.5770550531",uuuu,85633143,,6e2eb9e49796c335a0d5afa71bf91e0f,,b3103e5e22aade911cd22b362a17896f,63.44903,24.281146,907199301,uuuu,FI,FI,1470852248,63.432299,24.260129,0,Halsua,85683125,907/199/301/907199301.geojson,localadmin,85683125,,,,FI
"23.4224071934,63.4829728357,24.0989467874,63.6754369931",uuuu,85633143,,1c9859d35449a3172451dd1351c26a20,,60a933259ae5c67a61995f2e0ab01fd6,63.584655,23.771196,907199305,uuuu,FI,FI,1470852249,63.592384,23.747076,0,Kaustinen,85683125,907/199/305/907199305.geojson,localadmin,85683125,,,,FI
"23.97537404,63.5660043227,24.6150347642,63.8862213373",uuuu,85633143,,36947d9ab5ce236236e97956bc52d97a,,90bb5a77d9cec95696a761e9d10ce6b5,63.73469,24.293394,907199309,uuuu,FI,FI,1470852250,63.726972,24.325145,0,Toholampi,85683125,907/199/309/907199309.geojson,localadmin,85683125,,,,FI
"28.3859473427,62.7729371134,29.0976021629,63.1367154549",uuuu,85633143,,a50f60c337ffa7d613e4e73e7896a6be,,7fbbf89afd59ad02b33b38120316662d,62.970736,28.742179,907199313,uuuu,FI,FI,1470852251,62.989989,28.736812,0,Kaavi,85683131,907/199/313/907199313.geojson,localadmin,85683131,,,,FI
"27.7966065114,63.6688114762,29.2110310565,64.3752309991",uuuu,85633143,,03751e05f8d75ad80d1d389eda058e80,,bd4d633f4bfae81cd61341d5bf242fa7,64.048119,28.445691,907199319,uuuu,FI,FI,1470852253,64.068241,28.280036,0,Sotkamo,85683137,907/199/319/907199319.geojson,localadmin,85683137,,,,FI
"28.0376855293,63.2038353198,28.7595258033,63.7550021332",uuuu,85633143,,865699edce03d298bea45397dba84368,,da009a5e79114dd99141cf332acc39b7,63.491167,28.404017,907199323,uuuu,FI,FI,1470852255,63.535958,28.433785,0,Rautavaara,85683131,907/199/323/907199323.geojson,localadmin,85683131,,,,FI
"27.1192711418,63.5024158304,28.1680841041,63.9976275629",uuuu,85633143,,a087e17b3799a1d5c9127c6bb410107f,,5a444484a6135a98865e8d4f67e3ff54,63.737841,27.663224,907199331,uuuu,FI,FI,1470852259,63.710461,27.69881,0,Sonkajarvi,85683131,907/199/331/907199331.geojson,localadmin,85683131,,,,FI
"27.9702834344,62.9410123143,28.7623868144,63.2786786507",uuuu,85633143,,f2c7cfb11c989f9336ec99ff3fea978c,,1287ec2423ce7dfc9cc7508ed91664ec,63.096159,28.352068,907199339,uuuu,FI,FI,1470852261,63.035822,28.292011,0,Juankoski,85683131,907/199/339/907199339.geojson,localadmin,85683131,,,,FI
"24.1270784148,63.6486583527,24.9687605389,64.0302113839",uuuu,85633143,,f1669b9901d6ec386f9eda0e88e25b76,,b31e9f9e527f333f123d074a100f8461,63.841627,24.592272,907199347,uuuu,FI,FI,1470852262,63.829297,24.62152,0,Sievi,85683143,907/199/347/907199347.geojson,localadmin,85683143,,,,FI
"26.7940286263,63.299286377,27.667849631,63.6895765559",uuuu,85633143,,aab004f76a78c02d8927fe46c0acdd06,,1db44b9aee25fa88927fab2b3bf9a42e,63.52787,27.154878,907199351,uuuu,FI,FI,1470852266,63.526836,27.111914,0,Iisalmi,85683131,907/199/351/907199351.geojson,localadmin,85683131,,,,FI
"26.5593947636,63.6105047229,27.3575792655,64.0369738238",uuuu,85633143,,4117f25f5d1b69839617a13bd97f5341,,71af2a1a8852744d6d41ac1b617f8805,63.843863,26.998432,907199359,uuuu,FI,FI,1470852270,63.844981,27.004396,0,Vierema,85683131,907/199/359/907199359.geojson,localadmin,85683131,,,,FI
"26.4857222649,62.7962804221,27.1424426689,63.1316755742",uuuu,85633143,,39b03fd50e2ce7250bdb53d06f3f87c5,,0d06271695edca5a15653e57974611fb,62.97169,26.816085,907199369,uuuu,FI,FI,1470852272,62.939451,26.785878,0,Tervo,85683131,907/199/369/907199369.geojson,localadmin,85683131,,,,FI
"27.1190918074,63.1537621578,28.1305196826,63.5501172571",uuuu,85633143,,c92da7896b164450a924c37987b90e4c,,3e451f2ae893dfcc2c5f65018f1c550f,63.372543,27.629782,907199373,uuuu,FI,FI,1470852276,63.335405,27.511397,0,Lapinlahti,85683131,907/199/373/907199373.geojson,localadmin,85683131,,,,FI
"24.2274154852,61.7155382395,24.6666512699,61.9284379674",uuuu,85633143,,d365cc46c9546b1ee04d9ec1f376b0d1,,ad67be8211c612fefc49ee20764d53d5,61.823992,24.471185,907199385,uuuu,FI,FI,1470852278,61.820122,24.504448,0,Juupajoki,85683099,907/199/385/907199385.geojson,localadmin,85683099,,,,FI
"28.6108041267,62.9684677165,29.7939892563,63.4497155616",uuuu,85633143,,edf896a961b2f5ca29ab2f51c4f1b862,,18e6e3376f43d41af4a9a13bd8d90660,63.20769,29.182188,907199389,uuuu,FI,FI,1470852279,63.226932,29.141567,0,Juuka,85683133,907/199/389/907199389.geojson,localadmin,85683133,,,,FI
"24.0783981945,61.5137419643,24.9169388964,61.8629895063",uuuu,85633143,,75ee1805227c7e03de60e7433c560c5f,,878c6fc412f3ea537df6737f6c690e2b,61.672536,24.468864,907199393,uuuu,FI,FI,1470852280,61.642733,24.455694,0,Orivesi,85683099,907/199/393/907199393.geojson,localadmin,85683099,,,,FI
"28.9309099102,62.6808535659,29.7232547071,63.109573482",uuuu,85633143,,56188d7718d2ec0e5e16a78e20435dd9,,75ae6a840c34ee342d8fbb0e01c5bea2,62.893869,29.357917,907199399,uuuu,FI,FI,1470852283,62.892967,29.384911,0,Polvijarvi,85683133,907/199/399/907199399.geojson,localadmin,85683133,,,,FI
"28.3597234212,63.5580892041,29.204865278,63.8824146681",uuuu,85633143,,afbe80e6e31abb08a452a11101314dd9,,05b2e8395585a477fc15acbfbe4310de,63.737356,28.757498,907199405,uuuu,FI,FI,1470852284,63.720822,28.751156,0,Valtimo,85683133,907/199/405/907199405.geojson,localadmin,85683133,,,,FI
"28.6034302311,63.3478502014,29.7756890205,63.8789423238",uuuu,85633143,,dabdedab8fc321c84d56e330f27fc65a,,8d7bed9e09f27d2f6fa37679402e9854,63.608009,29.242809,907199409,uuuu,FI,FI,1470852286,63.588807,29.300464,0,Nurmes,85683133,907/199/409/907199409.geojson,localadmin,85683133,,,,FI
"29.9496409095,62.0606603898,30.7891818613,62.4163491666",uuuu,85633143,,35f75654c5252d19822b4b78dbb984cb,,eaa0dac413c2589dc5ee8e0a4fce0fb2,62.255202,30.381995,907199417,uuuu,FI,FI,1470852289,62.223983,30.388226,0,Tohmajarvi,85683133,907/199/417/907199417.geojson,localadmin,85683133,,,,FI
"27.3378822335,62.9518722354,27.9491654667,63.2518373559",uuuu,85633143,,e8027e757b74f8d4f6ffb70c9fcd4088,,d1b3ffeaae2ff89855f878b8405e9f99,63.08161,27.656502,907199425,uuuu,FI,FI,1470852291,63.076802,27.631005,0,Siilinjarvi,85683131,907/199/425/907199425.geojson,localadmin,85683131,,,,FI
"24.1370822524,64.041751773,24.5895128692,64.3000942244",uuuu,85633143,,48cf302b5664f7c3f07f6d2bd04a790f,,c6b5de99e1d3c365a828acf3db64eb08,64.180744,24.332533,907199429,uuuu,FI,FI,1470852293,64.155104,24.310069,0,Alavieska,85683143,907/199/429/907199429.geojson,localadmin,85683143,,,,FI
"24.0385913074,64.898464247,25.134789951,65.1739415202",uuuu,85633143,,d485c48fa280c8e9b7440d9de7ca621d,,21c9fb597649aa20d5939acc01077cce,65.047941,24.580362,907199435,uuuu,FI,FI,1470852293,65.040431,24.580362,0,Hailuoto,85683143,907/199/435/907199435.geojson,localadmin,85683143,,,,FI
"24.3039653309,63.942408542,25.0212454599,64.1850173189",uuuu,85633143,,e703afbdac6de56dd2a7173a87d4bf6d,,a116ff826ae5fca18a00430bfcbc5848,64.062041,24.645263,907199437,uuuu,FI,FI,1470852294,64.070245,24.641656,0,Ylivieska,85683143,907/199/437/907199437.geojson,localadmin,85683143,,,,FI
"23.4531218734,60.7795278393,23.8393395893,61.0090335316",uuuu,85633143,,0f0dc1e58687c0927e2fff61dc191b7c,,e31c4f3fef03a208e4ee60bcedbbf410,60.916298,23.638841,907199441,uuuu,FI,FI,1470852300,60.939794,23.652001,0,Forssa,85683077,907/199/441/907199441.geojson,localadmin,85683077,,,,FI
"29.5600432047,62.5662438484,30.288005095,63.0657518427",uuuu,85633143,,d90a49c22916f9da9dd9c1703c903533,,56cf67fb2852d686b013e8d141f9c750,62.786039,29.873607,907199445,uuuu,FI,FI,1470852302,62.77829,29.848855,0,Kontiolahti,85683133,907/199/445/907199445.geojson,localadmin,85683133,,,,FI
"23.6907025352,64.3128422613,25.4629266514,64.8547767166",uuuu,85633143,,b4de15181c96ca490532f7e7ee7ad858,,a094c79636948f035d2a388165b95ba4,64.60032,24.523181,907199449,uuuu,FI,FI,1470852303,64.640782,24.522678,0,Raahe,85683143,907/199/449/907199449.geojson,localadmin,85683143,,,,FI
"26.7484041834,63.8445700911,28.1580486463,64.365170117",uuuu,85633143,,ba2f0a4cf099840604bb154f8c16fc6d,,6cf472086295dc6390c3549e58d651f0,64.135277,27.433991,907199455,uuuu,FI,FI,1470852305,64.134789,27.539961,0,Kajaani,85683137,907/199/455/907199455.geojson,localadmin,85683137,,,,FI
"24.1149255003,64.8444158475,26.7715617721,65.5726205197",uuuu,85633143,,1c0e3522166b6348c9790de74bf5a8d2,,25207327437d3dc8f4950d1487330587,65.154062,25.755186,907199459,uuuu,FI,FI,1470852310,65.157043,25.781343,0,Oulu,85683143,907/199/459/907199459.geojson,localadmin,85683143,,,,FI
"25.525033984,63.7868750399,26.251386636,64.1106440026",uuuu,85633143,,0e3c67355c93eb7ab7b2815af9f4af28,,b594b933c7a539de484c193e206f6813,63.960118,25.859749,907199465,uuuu,FI,FI,1470852311,63.965104,25.85962,0,Karsamaki,85683143,907/199/465/907199465.geojson,localadmin,85683143,,,,FI
"24.865170337,63.9216024997,25.8545822684,64.3735391592",uuuu,85633143,,3713513d3553fb4ddb9cf392101cc72f,,8f85c3be4431dff8ca103ddef9c9a35b,64.134837,25.361633,907199471,uuuu,FI,FI,1470852311,64.127861,25.392588,0,Haapavesi,85683143,907/199/471/907199471.geojson,localadmin,85683143,,,,FI
"27.1800123029,64.292890609,28.4630593598,64.5816384599",uuuu,85633143,,a9b23b0cf3622a7a53d2e3124361a61f,,bc17147e474c077d683c38ca06f1719b,64.423979,27.726171,907199475,uuuu,FI,FI,1470852314,64.441553,27.725216,0,Paltamo,85683137,907/199/475/907199475.geojson,localadmin,85683137,,,,FI
"25.749989291,64.4790638591,26.7380344694,64.9808555687",uuuu,85633143,,f17ab00be0df860fc316a6a1f9883b36,,aa005d5f1ba597080e9740272e654feb,64.758494,26.134573,907199477,uuuu,FI,FI,1470852315,64.798349,26.072087,0,Muhos,85683143,907/199/477/907199477.geojson,localadmin,85683143,,,,FI
"25.4256935836,64.842475908,25.7292256443,64.948263722",uuuu,85633143,,16ee0fb2fb6b1c70e80a34e43e9d5e42,,740af6904933c63685bccc8b23f13479,64.898536,25.573408,907199479,uuuu,FI,FI,1470852316,64.892831,25.585613,0,Kempele,85683143,907/199/479/907199479.geojson,localadmin,85683143,,,,FI
"26.1653831307,63.4316344257,26.9249003278,63.9654810242",uuuu,85633143,,1a7e74eeeb2d3e92328d94f31314de92,,861a9244198e8caa2ca499d30a0694ee,63.681577,26.536472,907199481,uuuu,FI,FI,1470852318,63.68795,26.529327,0,Kiuruvesi,85683131,907/199/481/907199481.geojson,localadmin,85683131,,,,FI
"24.1501612897,65.2924801707,25.9391908927,66.1162389307",uuuu,85633143,,c17e382d650376818fbbda9d866f2354,,6ec19fa7a7036833d3ba8c738911f40b,65.742067,25.155659,907199485,uuuu,FI,FI,1470852320,65.920314,25.515036,0,Simo,85683147,907/199/485/907199485.geojson,localadmin,85683147,,,,FI
"24.2645931231,64.1864531877,24.8362813861,64.3992489366",uuuu,85633143,,32cf3643cadc91282bb202e8bf024b0a,,9e8cb643626b1db1ce89867a90745736,64.303332,24.507316,907199489,uuuu,FI,FI,1470852321,64.285355,24.477872,0,Merijarvi,85683143,907/199/489/907199489.geojson,localadmin,85683143,,,,FI
"26.0928752394,63.8410354802,26.8704021946,64.2825834355",uuuu,85633143,,860097dca33cef29b8f92230e971512a,,a2a8ffce535df86f122e899f0502fbc7,64.07059,26.474155,907199491,uuuu,FI,FI,1470852322,64.069407,26.439567,0,Pyhanta,85683143,907/199/491/907199491.geojson,localadmin,85683143,,,,FI
"25.681004107,65.7006400705,27.4945875611,66.3018936318",uuuu,85633143,,531cbb142fed7484626a552d6addc92e,,efa5c10f8c8a4d4c7444c7b9c4f271fe,65.980488,26.616803,907199493,uuuu,FI,FI,1470852324,65.963607,26.616684,0,Ranua,85683147,907/199/493/907199493.geojson,localadmin,85683147,,,,FI
"26.1518532003,65.0871938845,28.1643122064,65.960359611",uuuu,85633143,,92e62c3207178824239d704ad7775971,,b6aa862ddb73fbecb563be5b642952c7,65.448773,27.12877,907199499,uuuu,FI,FI,1470852326,65.435676,27.143765,0,Pudasjarvi,85683143,907/199/499/907199499.geojson,localadmin,85683143,,,,FI
"27.9955822464,64.5662912438,30.1358378793,65.520851551",uuuu,85633143,,173cbaff9573acd04726bc6ad98c63be,,0b970bbb66a4bd62f9a0ff74f8f9ceb2,65.045497,29.122098,907199501,uuuu,FI,FI,1470852328,65.059194,29.122182,0,Suomussalmi,85683137,907/199/501/907199501.geojson,localadmin,85683137,,,,FI
"27.712540012,65.2503486767,29.2192869777,65.8462075341",uuuu,85633143,,9f2787b24e3c027cb322218f4aed30d9,,20be1fbea9e8761bafd42739a1021a04,65.560305,28.35243,907199503,uuuu,FI,FI,1470852330,65.546257,28.352669,0,Taivalkoski,85683143,907/199/503/907199503.geojson,localadmin,85683143,,,,FI
"28.7519458238,63.7033563739,30.5535572174,64.6353632002",uuuu,85633143,,212d77a9460d773fc65a252f1411b69b,,311a469a78a24b1fa65e4f51ffbfb3f6,64.18084,29.672451,907199507,uuuu,FI,FI,1470852331,64.253658,29.672422,0,Kuhmo,85683137,907/199/507/907199507.geojson,localadmin,85683137,,,,FI
"26.1410107943,64.5581921735,27.4053634906,65.1068240886",uuuu,85633143,,eefd2e7df94d19c960f85139112ca9bd,,d7d0923f83f6605c7525acce24c9926e,64.861881,26.822893,907199509,uuuu,FI,FI,1470852332,64.931465,26.930946,0,Utajarvi,85683143,907/199/509/907199509.geojson,localadmin,85683143,,,,FI
"27.1184424542,64.5025925189,28.2943013488,65.2227587437",uuuu,85633143,,ad59e18a66ac8638db9a14155ba6ff80,,331b7a0a15de1bb16079880d31a0964b,64.8565,27.744056,907199513,uuuu,FI,FI,1470852334,64.824916,27.703885,0,Puolanka,85683137,907/199/513/907199513.geojson,localadmin,85683137,,,,FI
"24.5310227341,64.1094508241,25.2629849953,64.4060989245",uuuu,85633143,,7b0029490b02cddcfd1c2b2769660ab5,,b36262440cd5883663e0cd64405724fa,64.255445,24.876091,907199517,uuuu,FI,FI,1470852335,64.267959,24.876242,0,Oulainen,85683143,907/199/517/907199517.geojson,localadmin,85683143,,,,FI
"28.3682465782,65.4879703726,30.1384632061,66.4858532328",uuuu,85633143,,c91c19ce6e45ffd19f93ed60ca3010c4,,5b25419ff2bf5bd6a25c7d1efa52496f,65.971529,29.27459,907199519,uuuu,FI,FI,1470852336,65.963874,29.257641,0,Kuusamo,85683143,907/199/519/907199519.geojson,localadmin,85683143,,,,FI
"30.3588647473,62.3849509331,31.5867039408,63.1951331291",uuuu,85633143,,42b480c1498864e569a5a3c426ee7373,,1d119c2567049a71dcd607ff87798d37,62.836843,30.994998,907199525,uuuu,FI,FI,1470852338,62.821886,31.05481,0,Ilomantsi,85683133,907/199/525/907199525.geojson,localadmin,85683133,,,,FI
"27.8704797513,64.3073447492,28.8598373094,64.6560499267",uuuu,85633143,,533591179f2fd147883f57695583a856,,5b1fe6ec64b1fa5d79a062336e30935f,64.484894,28.429144,907199527,uuuu,FI,FI,1470852340,64.487743,28.436792,0,Ristijarvi,85683137,907/199/527/907199527.geojson,localadmin,85683137,,,,FI
"28.0476059404,64.449866874,29.4594557551,64.8983749087",uuuu,85633143,,57f7d8a8531482bd791abd99ad4a8405,,cb651679192b921316da5fd70b813ff8,64.651104,28.695339,907199531,uuuu,FI,FI,1470852341,64.705874,28.507581,0,Hyrynsalmi,85683137,907/199/531/907199531.geojson,localadmin,85683137,,,,FI
"27.2339350792,65.8005948971,28.768425291,66.4922541636",uuuu,85633143,,a868e0de4d18a8f7025c061672cc54f6,,386226f170add826cbd485e9ed310c82,66.151453,28.045191,907199533,uuuu,FI,FI,1470852344,66.121573,28.057082,0,Posio,85683147,907/199/533/907199533.geojson,localadmin,85683147,,,,FI
"24.9532597365,64.7342557937,25.3301821924,64.984220288",uuuu,85633143,,573f2caca38c4eb404405a7f9f4286ea,,2aa47a794bf48df0dd35a09318c565b6,64.856381,25.126925,907199537,uuuu,FI,FI,1470852344,64.851246,25.124068,0,Lumijoki,85683143,907/199/537/907199537.geojson,localadmin,85683143,,,,FI
"26.4681445885,66.2890676557,28.2724092288,67.043026895",uuuu,85633143,,e0003bed82588b4ad2d9bad753ab5931,,b4eda473518a56f7eb570d8c4414fae3,66.687963,27.359282,907199539,uuuu,FI,FI,1470852346,66.671394,27.346133,0,Kemijarvi,85683147,907/199/539/907199539.geojson,localadmin,85683147,,,,FI
"24.4940783311,65.9437903399,26.0673243708,66.337640958",uuuu,85633143,,c3158104c484426a4aa15ad710069ab1,,00f728b863dcce9e094d04c2b18451b2,66.131711,25.088908,907199545,uuuu,FI,FI,1470852346,66.12817,25.034395,0,Tervola,85683147,907/199/545/907199545.geojson,localadmin,85683147,,,,FI
"23.6428776762,66.1652753992,25.0504107406,66.7656401664",uuuu,85633143,,94fc56333f3686d08c5df148f15e4427,,dfad651132e6b4f776f40f7b9fc2e0a9,66.449863,24.387168,907199549,uuuu,FI,FI,1470852348,66.449099,24.445674,0,Ylitornio,85683147,907/199/549/907199549.geojson,localadmin,85683147,,,,FI
"23.7778819578,66.465421075,24.9880519838,67.014924546",uuuu,85633143,,04126a84efeb2e52c3b15780d0021237,,e34641c7af93a356cafab9e57b7b6f72,66.778027,24.302412,907199553,uuuu,FI,FI,1470852349,66.77731,24.201748,0,Pello,85683147,907/199/553/907199553.geojson,localadmin,85683147,,,,FI
"27.8814516224,66.408146386,30.0170443393,67.8029592156",uuuu,85633143,,9e82f880db360afc2fe5d071d3babf2e,,eec1fb445141d5f54e808300e7e51835,66.996169,28.908713,907199555,uuuu,FI,FI,1470852351,66.83337,28.730471,0,Salla,85683147,907/199/555/907199555.geojson,localadmin,85683147,,,,FI
"23.7535992922,65.6128463991,24.7918246818,66.3322357076",uuuu,85633143,,e3904d62ea1e14165ca273f3f5ccb99d,,731ffc896c8a9f7ff88bb70614adb503,66.025428,24.283616,907199557,uuuu,FI,FI,1470852353,66.035063,24.290673,0,Tornio,85683147,907/199/557/907199557.geojson,localadmin,85683147,,,,FI
"25.3500173908,66.9429242498,28.6461525992,68.4661903942",uuuu,85633143,,62f8af9c0ce74c9613b9906152c0f686,,fac2af4443c2871bd8ef29297b6ca097,67.786156,26.91277,907199561,uuuu,FI,FI,1470852354,67.728067,26.613214,0,Sodankyla,85683147,907/199/561/907199561.geojson,localadmin,85683147,,,,FI
"24.0932384339,67.1511886086,26.0078395199,68.3952887555",uuuu,85633143,,111a4de8c0782ec98abc29bc682b11f6,,217d77b832a42100c478d2a81a76fce0,67.81302,25.052014,907199565,uuuu,FI,FI,1470852355,67.779031,25.051799,0,Kittila,85683147,907/199/565/907199565.geojson,localadmin,85683147,,,,FI
"24.9031657818,68.2775716776,29.3364955553,69.8491925837",uuuu,85633143,,ee453ed0983082610e42df314c7db409,,f0fb41c634eb90935d00571f0d7a8d64,68.939892,27.234707,907199567,uuuu,FI,FI,1470852357,68.895905,27.234585,0,Inari,85683147,907/199/567/907199567.geojson,localadmin,85683147,,,,FI
"24.4361907334,65.6950372529,25.2267139202,66.0602502585",uuuu,85633143,,18fa89337f8524c8e62a19a6988f5afa,,58c185da7ec6a8e0fbf11039d5b3016d,65.875816,24.785299,907199569,uuuu,FI,FI,1470852359,65.848469,24.779916,0,Keminmaa,85683147,907/199/569/907199569.geojson,localadmin,85683147,,,,FI
"26.51797357,66.8859098467,28.3594816791,67.4253208178",uuuu,85633143,,c8ac0614bebc9e458b56c71a6ea38e59,,0f6461ac9bff17a7201df45b9d16b5fd,67.142586,27.467406,907199571,uuuu,FI,FI,1470852360,67.191708,27.453248,0,Pelkosenniemi,85683147,907/199/571/907199571.geojson,localadmin,85683147,,,,FI
"25.6927421087,69.1475801004,28.3452695648,70.092293213",uuuu,85633143,,714cb9293d51d59c69c24ce327a75081,,a663baef7fdd7bb80d7aa6425a4b8a19,69.659525,26.959449,907199575,uuuu,FI,FI,1470852361,69.655883,26.758904,0,Utsjoki,85683147,907/199/575/907199575.geojson,localadmin,85683147,,,,FI
"27.2220802629,67.1081063508,29.6594052467,68.1963035524",uuuu,85633143,,73f2347374d6f6690374654d46e80a4f,,b75c6c7822acbd16ba36d0721ce83ad9,67.634346,28.531483,907199579,uuuu,FI,FI,1470852363,67.633176,28.550041,0,Savukoski,85683147,907/199/579/907199579.geojson,localadmin,85683147,,,,FI
"23.5401101014,66.9379070585,24.8702589304,67.638818947",uuuu,85633143,,93ee1baff15105eac7805025480d5fc7,,bc6da519bb2efc3805c8fd415a06cc39,67.250858,24.149802,907199583,uuuu,FI,FI,1470852364,67.321534,24.084667,0,Kolari,85683147,907/199/583/907199583.geojson,localadmin,85683147,,,,FI
"23.2867597461,67.4459864335,24.301493899,68.1872949976",uuuu,85633143,,968db84fc41d228b728049c84d0c425c,,881cecebac27a9c66a0c0ce6dcb7dd92,67.855476,23.803785,907199587,uuuu,FI,FI,1470852365,67.843382,23.896102,0,Muonio,85683147,907/199/587/907199587.geojson,localadmin,85683147,,,,FI
"24.7368491524,66.1553988751,27.3266497495,67.1797682761",uuuu,85633143,,f259d99e21ff327222c0ee2b62356a47,,4565f3b9754cdc46c4223fa086a848cc,66.638155,25.840236,907199591,uuuu,FI,FI,1470852366,66.662643,25.840336,0,Rovaniemi,85683147,907/199/591/907199591.geojson,localadmin,85683147,,,,FI
"24.1327528329,65.3372876059,24.7534901049,65.8074182681",uuuu,85633143,,11cd54c85e7b2721c57657cb8161ef0a,,2b0ad697521bdd14868909582d3fe198,65.585633,24.394198,907199597,uuuu,FI,FI,1470852367,65.585615,24.394116,0,Kemi,85683147,907/199/597/907199597.geojson,localadmin,85683147,,,,FI
"20.548636402,68.1159647234,25.0271957215,69.3118841445",uuuu,85633143,,fb2279a4eb48855ead46211ffc680422,,1b6f4f067e120a5bbe3b2ba896e2233c,68.651503,22.870984,907199599,uuuu,FI,FI,1470852368,68.436211,23.463279,0,Enontekio,85683147,907/199/599/907199599.geojson,localadmin,85683147,,,,FI
"24.6056158009,60.6474964234,24.8447329932,60.8003114164",uuuu,85633143,,cc190c40dd8bf65dccb3cf99710b4aab,,20086054f5ad2c014bbf3743735d2a1c,60.711642,24.740064,907199603,uuuu,FI,FI,1470852369,60.708205,24.738244,0,Riihimaki,85683077,907/199/603/907199603.geojson,localadmin,85683077,,,,FI
"29.4672867514,62.99840253,31.2408457826,63.757165328",uuuu,85633143,,fee69923b0ee9be014ae2bcc53ae8b32,,f48741d688aa83834d8f3d586191ca05,63.335522,30.187315,907199605,uuuu,FI,FI,1470852371,63.388035,29.952603,0,Lieksa,85683133,907/199/605/907199605.geojson,localadmin,85683133,,,,FI
"29.6130921292,62.2508029454,31.0935216163,63.0475854383",uuuu,85633143,,ada5daf829652a6987a3f63d99b4da2f,,7b302fd4a319eaf599ffdc1a63dfec59,62.612871,30.327143,907199609,uuuu,FI,FI,1470852373,62.529746,30.439234,0,Joensuu,85683133,907/199/609/907199609.geojson,localadmin,85683133,,,,FI
"25.5010534229,64.56274403,26.1294898635,64.90445548",uuuu,85633143,,638c54756fc58373bcc1a4c9ec8a4cca,,d789eb344fd0677e24da6b47a47b4924,64.72465,25.767366,907199615,uuuu,FI,FI,1470852374,64.754225,25.710628,0,Tyrnava,85683143,907/199/615/907199615.geojson,localadmin,85683143,,,,FI
"22.7788967491,63.9649794864,24.3460666016,64.4834607182",uuuu,85633143,,dcb79e0bff1862bdc9da9735ed634efb,,cad5e193021f2a02007f707e315ec41c,64.236997,23.613852,907199617,uuuu,FI,FI,1470852375,64.233736,23.625261,0,Kalajoki,85683143,907/199/617/907199617.geojson,localadmin,85683143,,,,FI
"26.2911059544,64.2581891686,27.396978196,64.8352873766",uuuu,85633143,,03642172a99c2a4a2afdb0220c3f20b0,,c0dfb58b805bcc32442cf080ba4b02ef,64.514741,26.895924,907199621,uuuu,FI,FI,1470852377,64.504158,26.895849,0,Vaala,85683143,907/199/621/907199621.geojson,localadmin,85683143,,,,FI
"22.5106011668,61.7363899122,22.8284218415,61.952107514",uuuu,85633143,,d2d40b4760d375182c09687e2bf3f6dc,,bb7e7deeb3123cc05e41a04122959845,61.841094,22.672054,907199625,uuuu,FI,FI,1470852378,61.846398,22.661179,0,Jamijarvi,85683095,907/199/625/907199625.geojson,localadmin,85683095,,,,FI
"24.6378556075,63.7521003155,25.3662253494,64.0679382789",uuuu,85633143,,07f36bfebe21efecdb0368c2e1fde4a7,,01546e9427e270ed5e62c44550477f0b,63.926045,25.024678,907199629,uuuu,FI,FI,1470852379,63.942366,25.026199,0,Nivala,85683143,907/199/629/907199629.geojson,localadmin,85683143,,,,FI
"24.6752876178,60.202562648,24.7509136436,60.2259132354",uuuu,85633143,,b34ed320724836f0a890edfa88490663,,397302023cacf8b3fabd15e155246404,60.214556,24.713574,907199633,uuuu,FI,FI,1470852379,60.217471,24.71301,0,Kauniainen,85683067,907/199/633/907199633.geojson,localadmin,85683067,,,,FI
"25.1684138849,64.4626822844,26.2911059544,64.8923890246",uuuu,85633143,,d27799bea77a83e9006e2291850571c9,,a82e5e81e8ece061cc70f6e878b4be96,64.67303,25.653079,907199635,uuuu,FI,FI,1470852381,64.76725,25.412398,0,Liminka,85683143,907/199/635/907199635.geojson,localadmin,85683143,,,,FI
"24.9556627069,63.5814801024,25.667306323,63.9447656807",uuuu,85633143,,7c1bf13cf7be9c1ea10647b117ae0fef,,2ceb9dd434fc1fa42e70127c08542978,63.773308,25.377723,907199639,uuuu,FI,FI,1470852382,63.773635,25.402072,0,Haapajarvi,85683143,907/199/639/907199639.geojson,localadmin,85683143,,,,FI
"20.8296252016,61.2888399524,21.8046275055,61.5301785534",uuuu,85633143,,fff5e5649662eab90fa2c88b072ed929,,746e9e9335d50f001f1317f19ba8f4dd,61.407536,21.263554,907199643,uuuu,FI,FI,1470852382,61.416909,21.263522,0,Luvia,85683095,907/199/643/907199643.geojson,localadmin,85683095,,,,FI
"22.925429511,60.5711644885,23.2576955688,60.7741682465",uuuu,85633143,,1528a62f3f0f8606e1045d52d0de8688,,dfdb2a364c11cce48f21f3bc9e12ff70,60.661824,23.126006,907199647,uuuu,FI,FI,1470852383,60.663834,23.137278,0,Koski Tl,85683073,907/199/647/907199647.geojson,localadmin,85683073,,,,FI
"24.7462358484,60.2372175528,25.1930682903,60.4012548545",uuuu,85633143,,fbe4460ab497878f41f014aecfdffbcc,,edb44e1c791f24bcab431134a4c0eb27,60.313279,24.950674,907199651,uuuu,FI,FI,1470852385,60.326654,24.854159,0,Vantaa,85683067,907/199/651/907199651.geojson,localadmin,85683067,,,,FI
"20.8745681297,61.3840240327,22.7249299477,61.7496779307",uuuu,85633143,,b6ccaa95d035441cddac0af2aaf0f666,,686ec34ad60a2fd65cb6c3ef7fd4b105,61.597413,21.705662,907199653,uuuu,FI,FI,1470852386,61.58356,21.643094,0,Pori,85683095,907/199/653/907199653.geojson,localadmin,85683095,,,,FI
"23.1400486404,64.2996844967,24.8891751958,64.6287373145",uuuu,85633143,,b9f9dc9de81341def34e10c4f973edb4,,d6f81d3c4baf2984df117d3547cc8b00,64.46894,24.018933,907199655,uuuu,FI,FI,1470852387,64.467351,24.032494,0,Pyhajoki,85683143,907/199/655/907199655.geojson,localadmin,85683143,,,,FI
"20.284325635,59.4541440185,21.345645063,60.1039680913",uuuu,0,,b1698ab11a56b5f9d0a5ecfe82fb04b4,,1e41e854ab258a4943c96303a365d07d,59.742582,20.899207,907199659,uuuu,FI,FI,1470852388,59.740966,20.935393,0,Kokar,-1,907/199/659/907199659.geojson,localadmin,0,,,,FI
"20.4660342811,62.2037824066,21.7909676741,62.7676659584",uuuu,85633143,,145b55c3bf404fc0caa3bac0ca545367,,1fc3094cb7ba03947874e075478cc72e,62.51264,21.105877,907199661,uuuu,FI,FI,1470852389,62.505653,21.06108,0,Narpio,85683119,907/199/661/907199661.geojson,localadmin,85683119,,,,FI
"21.5115772001,62.3618966302,22.1113754032,62.6432466531",uuuu,85633143,,58271af351d3c67a694a347a818b9376,,db5c70ccdf394055016cad229e733191,62.506141,21.800572,907199665,uuuu,FI,FI,1470852390,62.485479,21.800746,0,Teuva,85683113,907/199/665/907199665.geojson,localadmin,85683113,,,,FI
"22.8296768559,63.3803206832,23.8359746421,63.7917102538",uuuu,85633143,,b409d22368dc3e9f87d6abb219c67610,,6e8af427334c115c194cc8cca8e9f488,63.64086,23.34883,907199669,uuuu,FI,FI,1470852391,63.654993,23.31693,0,Kruunupyy,85683119,907/199/669/907199669.geojson,localadmin,85683119,,,,FI
"26.890127759,62.5922636488,28.4579387479,63.403310726",uuuu,85633143,,9ac1c3d69e3ddd377eac9edf58284031,,ec39da0bb6e103008ad670fba699fee3,62.975256,27.685645,907199673,uuuu,FI,FI,1470852399,62.827534,27.673699,0,Kuopio,85683131,907/199/673/907199673.geojson,localadmin,85683131,,,,FI
"20.1061129975,60.1074906187,20.9876577576,60.8025694453",uuuu,0,,236aaf83bc3ea5efd3f4d596cdf6856e,,c8d8b9ca00d8b13e9dfc6cbc1f0df154,60.404763,20.628523,907199697,uuuu,FI,FI,1470852401,60.265756,20.768202,0,Kumlinge,-1,907/199/697/907199697.geojson,localadmin,0,,,,FI
"24.1374891017,65.2114925995,26.160110795,65.8223349674",uuuu,85633143,,9b900239b51e7ac28d6973fe09b50f3a,,ef79809fa38f57430c0ba7bb7cc2a623,65.472972,25.30424,907199699,uuuu,FI,FI,1470852402,65.473523,25.306099,0,Ii,85683143,907/199/699/907199699.geojson,localadmin,85683143,,,,FI
"23.9434001565,64.3260238135,25.6125804107,65.0079473474",uuuu,85633143,,39ae74381a6c8ffae46916607f9a82e6,,e3d2e748a20fd2134ac76939e59b968f,64.743188,24.804053,907199705,uuuu,FI,FI,1470852402,64.66609,25.011604,0,Siikajoki,85683143,907/199/705/907199705.geojson,localadmin,85683143,,,,FI
"27.7346367392,62.1410078981,28.6588906328,62.380506353",uuuu,85633143,,c1deee05ec497bc6c0423d289d9fafc1,,38fa5d709c60e181fb1e7ae3fe6745f7,62.278972,28.244053,907199707,uuuu,FI,FI,1470852404,62.290494,28.25102,0,Varkaus,85683131,907/199/707/907199707.geojson,localadmin,85683131,,,,FI
"24.7828055478,59.9224932379,25.254496669,60.2978394089",uuuu,85633143,,708bc52fff1d311489aa71b93ba18422,,9442430b95762764ecc5c3746f2d63c8,60.113924,25.017104,907199715,uuuu,FI,FI,1470852406,60.09489,25.012523,0,Helsinki,85683067,907/199/715/907199715.geojson,localadmin,85683067,,,,FI
"26.922136413,60.2294061338,27.6495323475,60.8426400374",uuuu,85633143,,26abc2ee44291bdf59a2898b34294aee,,9f3b3a7370273226cf0e791402f0cf3a,60.539376,27.290057,907199723,uuuu,FI,FI,1470852409,60.567852,27.204643,0,Hamina,85683081,907/199/723/907199723.geojson,localadmin,85683081,,,,FI
"19.9131076375,60.0466654679,19.9732859288,60.1289863808",uuuu,85633143,,57a52dc72064100839167b284c954979,,c41c22356e6411e31db7ea7d30b8550a,60.087881,19.942511,907199729,uuuu,FI,FI,1470852409,60.086164,19.94546,0,Maarianhamina,85667871,907/199/729/907199729.geojson,localadmin,85667871,,,,FI
"23.4932001143,61.0573551518,23.958595805,61.2589791823",uuuu,85633143,,871cc17187d7b331672e2e134812afe2,,856b27a3d154d14fc28887afa10bfc06,61.153978,23.747391,907199731,uuuu,FI,FI,1470852410,61.150068,23.743948,0,Akaa,85683099,907/199/731/907199731.geojson,localadmin,85683099,,,,FI
"21.9889446333,59.5010767325,22.9204197114,60.2649787975",uuuu,85633143,,bd77092047c504df550dd7fd51a714e1,,47cdf0378505ef5e6525598461156fae,59.875395,22.449582,907199735,uuuu,FI,FI,1470852411,59.865044,22.458414,0,Kemionsaari,85683073,907/199/735/907199735.geojson,localadmin,85683073,,,,FI
"21.0238299636,59.4756429388,22.5429991186,60.4986621596",uuuu,85633143,,79e3f1291b41d4a0dfb41da748314151,,97191302a5cd24828c81f40dc4ebed20,59.981748,21.666103,907199741,uuuu,FI,FI,1470852411,59.962758,21.665922,0,Parainen,85683073,907/199/741/907199741.geojson,localadmin,85683073,,,,FI
"24.035510182,61.9060589817,24.7309134761,62.2603115436",uuuu,85633143,,2f23410f2f7c791302d9b624b1f24ffd,,e5a700d45758a3266e5c947f7e22c9f0,62.082929,24.403815,907199743,uuuu,FI,FI,1470852413,62.03807,24.466972,0,Mantta-Vilppula,85683099,907/199/743/907199743.geojson,localadmin,85683099,,,,FI
"22.7883357788,59.6511886481,23.9863772297,60.2060012571",uuuu,85633143,,42836ea2b9d1344fac6fbd24b0bb8dc9,,e94f30d489928adf2e46880cf4cae3b4,59.938017,23.450877,907199747,uuuu,FI,FI,1470852413,59.933931,23.509855,0,Raasepori,85683067,907/199/747/907199747.geojson,localadmin,85683067,,,,FI
"22.4341601321,61.1825290555,23.2873309899,61.7238392306",uuuu,85633143,,a2e5a46828c04a57f0be463aec66e661,,09dfa34fbbc0799ae9d85713ce812464,61.415668,22.886255,907199751,uuuu,FI,FI,1470852415,61.415682,22.886506,0,Sastamala,85683099,907/199/751/907199751.geojson,localadmin,85683099,,,,FI
"25.3795479897,63.9646811894,26.7708709455,64.6289425207",uuuu,85633143,,49406b12695479ec49de245ee43c6380,,054273f4ad1a75e23cd211ae620078d2,64.328131,25.974342,907199755,uuuu,FI,FI,1470852416,64.309473,25.962486,0,Siikalatva,85683143,907/199/755/907199755.geojson,localadmin,85683143,,,,FI
"21.3605867597,63.0561135347,22.6582020865,63.6702322589",uuuu,85633143,,dab4e780862ad8bda0c4251c19216656,,f7be7b74be1a56d0e05ef871bc803be7,63.331706,22.075703,907199763,uuuu,FI,FI,1470852417,63.232623,22.193719,0,Voyri,85683119,907/199/763/907199763.geojson,localadmin,85683119,,,,FI
